UUID,Site_Code,State_Key,District,Latitude,Longitude,Land_Use,Elevation_m,Slope_deg,Dist_to_Road_km,Pop_Density_sqkm,Land_Value_USD_sqm,Suitability_Score
655540DF,IN-ASH-8A18,IND,Ashoknagar,24.70827964359025,78.0155008420073,Commercial,448.05,1.36,5.99,339,3711.23,75.63
1CA1CED3,IN-ASH-D646,IND,Ashoknagar,24.272895147948518,77.92916218800606,Industrial,110.24,4.26,3.05,6854,8915.02,71.11
5B1A5E86,IN-ASH-DD76,IND,Ashoknagar,24.825259713887956,77.98090492644403,Commercial,109.6,5.28,5.67,654,4009.37,79.33
5399C70A,IN-ASH-9A9B,IND,Ashoknagar,24.671840753020334,78.05932058715469,Industrial,617.5,1.6,7.73,823,3193.54,42.15
DBA0FCDD,IN-ASH-26C7,IND,Ashoknagar,24.326122764061914,77.82084523896327,Industrial,378.99,5.6,2.44,100,7311.6,84.26
1C234231,IN-ASH-B657,IND,Ashoknagar,24.50263758643079,77.80073854275012,Agricultural,133.13,7.45,11.16,737,2351.58,29.87
AFDC8206,IN-ASH-52B8,IND,Ashoknagar,24.79565437564674,77.71516799449125,Commercial,7.86,2.06,7.63,1577,3527.07,64.48
D7ADF9B7,IN-ASH-8455,IND,Ashoknagar,24.685250776006804,78.03560528405585,Industrial,799.83,6.3,3.06,2347,7090.92,63.75
8329E7DA,IN-ASH-AB3F,IND,Ashoknagar,24.49911767303259,78.22722493408955,Agricultural,702.33,7.04,1.61,2186,10449.61,92.22
934CFCFB,IN-ASH-823B,IND,Ashoknagar,24.73730331245196,77.66763101449614,Agricultural,284.27,0.0,1.63,2358,10461.93,78.49
DAF90D77,IN-ASH-65F2,IND,Ashoknagar,24.472000077320573,77.63140092769471,Industrial,540.85,6.06,11.69,1128,2420.75,54.93
3FEAD154,IN-ASH-1F83,IND,Ashoknagar,24.42493872293421,78.13769956160145,Commercial,289.84,4.93,6.66,486,3459.51,70.87
5FC19D16,IN-ASH-9AC5,IND,Ashoknagar,24.484102405654895,78.03448905235723,Residential,185.65,4.97,11.19,440,2226.94,48.46
C68CBE83,IN-ASH-20E1,IND,Ashoknagar,24.54779680583972,78.07104882902269,Agricultural,729.21,4.17,1.61,329,9710.9,89.5
06F927DB,IN-ASH-28F5,IND,Ashoknagar,24.626223639536818,77.62893786250663,Residential,660.12,2.75,4.75,1042,4767.6,85.84
93D138D7,IN-ASH-907C,IND,Ashoknagar,24.569694006562756,77.57638923701282,Agricultural,152.91,4.95,0.76,640,14470.31,71.34
DC57B0CF,IN-ASH-91C2,IND,Ashoknagar,24.47514001954981,77.61846499650466,Commercial,1251.14,3.5,2.49,1756,7868.63,82.04
10E0A8F3,IN-RAI-58A1,IND,Raisen,23.26566371160039,77.83020962051111,Commercial,405.47,1.1,6.13,239,3601.88,56.05
FA94FDCB,IN-RAI-AAE1,IND,Raisen,23.275213196662705,78.29508660690914,Commercial,325.31,3.8,2.83,212,6605.14,94.69
B08DDC20,IN-RAI-1A33,IND,Raisen,23.0854808138784,77.51694915423242,Commercial,281.1,2.12,6.63,694,3556.47,49.93
39FAB45C,IN-RAI-8B7C,IND,Raisen,23.420249471478822,77.82607418618977,Agricultural,532.4,2.55,0.99,635,12801.27,81.77
B2610531,IN-RAI-9CB5,IND,Raisen,23.56326821106689,78.45211369776443,Industrial,468.1,7.77,2.89,4538,8248.22,77.81
8358C634,IN-RAI-5D61,IND,Raisen,23.08629850400595,78.73912010179735,Commercial,763.46,1.01,4.58,1207,4966.45,75.54
A5F1E318,IN-RAI-545A,IND,Raisen,23.49639231386947,78.38287349099426,Agricultural,506.32,2.29,3.33,558,6001.97,78.74
FBC180A2,IN-RAI-A422,IND,Raisen,23.028372424797983,78.34244361974555,Residential,1365.27,2.76,5.47,1440,4439.73,49.01
0C582351,IN-RAI-F18E,IND,Raisen,23.31185782592158,78.57734608043349,Commercial,550.42,0.17,4.23,211,4860.31,63.04
6043294E,IN-RAI-E296,IND,Raisen,23.3648123484253,78.09586307382808,Commercial,800.44,1.42,6.11,800,3838.4,51.12
15C172EA,IN-RAI-116E,IND,Raisen,23.46524383589975,78.56716452358376,Residential,363.86,3.46,3.07,100,6188.74,90.25
C8F3EC8E,IN-RAI-7393,IND,Raisen,23.453425697866912,78.3325125010589,Agricultural,629.1,0.19,4.2,383,4957.6,90.2
9122F29F,IN-CHH-A999,IND,Chhindwara,21.799387796770652,79.12352476734685,Agricultural,563.63,4.26,2.93,133,6419.79,87.49
465012C8,IN-CHH-68B1,IND,Chhindwara,21.930393829940456,79.06754401057485,Agricultural,120.89,1.18,12.45,148,1917.89,53.23
FA202DEF,IN-CHH-CEB5,IND,Chhindwara,22.58146658387303,78.63890612886827,Commercial,890.16,4.28,5.82,740,3962.53,53.08
470EBE4B,IN-CHH-805C,IND,Chhindwara,21.77907315508842,78.52721098476633,Residential,252.72,4.51,1.87,2134,9567.71,79.62
42E255EA,IN-CHH-F56B,IND,Chhindwara,21.857148414128694,78.89236526992646,Commercial,580.79,6.57,2.4,357,7487.69,88.49
343EBDC9,IN-CHH-64B1,IND,Chhindwara,21.972660774667425,78.73189986572748,Commercial,915.19,8.31,8.58,838,2945.37,46.09
2321E7B0,IN-CHH-FE86,IND,Chhindwara,22.686535576733277,79.26445481133813,Commercial,167.61,4.85,1.04,429,12449.8,89.38
BDCA8AC1,IN-CHH-64C9,IND,Chhindwara,21.90955757795986,78.81966459300857,Residential,594.76,0.36,0.7,842,15035.74,85.52
C3449330,IN-CHH-242F,IND,Chhindwara,21.896379709485398,78.59330091199695,Commercial,748.47,2.44,9.45,1196,2870.52,40.88
755FC74E,IN-CHH-7ECC,IND,Chhindwara,22.321254453049782,78.38938004169488,Agricultural,344.4,6.58,0.22,437,20598.0,68.57
4496BA7F,IN-CHH-C291,IND,Chhindwara,22.199298182704762,79.20097384201955,Commercial,844.12,6.98,1.21,1274,11820.49,70.67
18A57C1C,IN-CHH-9E27,IND,Chhindwara,22.624860686397195,78.53394292584942,Agricultural,566.57,2.83,0.84,412,13768.47,80.89
758323BE,IN-CHH-2A76,IND,Chhindwara,22.726383308446525,79.14079986157235,Industrial,281.46,3.31,2.46,273,7329.84,80.49
3D9CEA80,IN-BET-61FF,IND,Betul,21.44206541210727,77.48318923438228,Commercial,893.87,2.83,4.66,706,4701.26,68.2
7DE70F7D,IN-BET-BED3,IND,Betul,21.98226864603247,77.51161063232908,Agricultural,329.29,8.07,3.02,466,6402.08,84.66
64708E8F,IN-BET-B6A1,IND,Betul,21.96534085459436,77.81010402159698,Industrial,423.14,1.15,12.24,241,1984.46,50.0
029BD4FC,IN-BET-5BA3,IND,Betul,21.414512518628765,77.92464777238148,Agricultural,473.77,2.74,3.1,1890,6851.1,81.14
C38E9E06,IN-BET-6380,IND,Betul,21.877885286587606,77.53033594265547,Agricultural,842.84,6.19,3.18,100,6017.62,63.87
173244A4,IN-BET-0760,IND,Betul,21.630459881362135,78.09202057416316,Agricultural,725.8,5.94,4.55,812,4828.32,83.75
BD2CEA1C,IN-BET-4EC0,IND,Betul,22.22194591415136,77.99203615535448,Residential,1072.34,0.36,7.56,504,3123.21,40.78
0DC2645A,IN-BET-1AE9,IND,Betul,21.66951573312179,77.88683205559998,Residential,395.17,3.86,7.03,1009,3516.1,43.89
EB30F6B5,IN-BET-9555,IND,Betul,21.683020186743093,77.70420376566173,Residential,94.18,1.94,7.63,3017,4105.48,48.92
4B85DA19,IN-BET-FD04,IND,Betul,22.187471217291836,78.14217270155635,Industrial,594.34,9.19,1.23,184,11295.98,81.64
FE014548,IN-HOS-D0BC,IND,Hoshangabad,22.858258854254988,78.32647661222605,Agricultural,541.49,2.52,4.87,543,4479.33,86.19
42CACBDD,IN-HOS-FC48,IND,Hoshangabad,22.44801027613886,78.31269627938062,Agricultural,89.94,2.96,2.29,100,7638.09,91.01
FDA75E69,IN-HOS-0CD5,IND,Hoshangabad,22.28279066767958,77.50145266695239,Industrial,715.34,2.68,1.96,797,8772.98,68.59
10D35CDB,IN-HOS-22CD,IND,Hoshangabad,22.584180925643086,78.420929618547,Commercial,853.26,1.06,3.23,375,6064.76,81.03
C457DE0B,IN-HOS-55C5,IND,Hoshangabad,22.76174124270115,78.26615448456916,Commercial,887.06,6.45,0.69,2522,15792.43,75.48
DF8B38A5,IN-HOS-C90C,IND,Hoshangabad,22.661866791004883,78.54990170863768,Industrial,979.56,4.01,0.72,1717,15215.98,72.62
FF51DB5E,IN-HOS-C395,IND,Hoshangabad,22.30499506994203,77.39926092345415,Industrial,275.79,2.66,0.85,550,13727.82,82.68
25B3121F,IN-HOS-61CB,IND,Hoshangabad,22.588001313395278,77.70284682640022,Commercial,778.06,11.02,1.57,285,9849.26,80.32
6328675F,IN-HOS-4011,IND,Hoshangabad,22.42740623052864,77.821001062787,Industrial,608.37,1.12,1.06,852,12481.83,84.16
A7CD07BB,IN-HOS-5243,IND,Hoshangabad,22.410263759473114,78.42327125625134,Agricultural,638.08,0.97,9.78,216,2406.42,49.45
8B278909,IN-HOS-8FD0,IND,Hoshangabad,22.509351226170363,78.36571578771421,Industrial,540.52,6.14,3.9,1305,5629.41,66.35
000897C8,IN-HOS-3BFD,IND,Hoshangabad,22.833954754357787,78.32935616467383,Industrial,729.11,5.64,1.57,243,9835.55,76.35
F40D255E,IN-HOS-8331,IND,Hoshangabad,22.26499982818478,77.41819107587065,Industrial,594.37,0.69,2.06,655,8441.86,70.11
13FDCC71,IN-HOS-59F5,IND,Hoshangabad,22.87834234577406,78.45785067470118,Agricultural,383.5,1.53,3.67,1335,5888.23,89.31
76F030E7,IN-SEH-5258,IND,Sehore,22.980079751239664,76.44665136890018,Commercial,262.58,1.7,1.84,4798,10734.28,85.75
6BD8B6B9,IN-SEH-C55C,IND,Sehore,23.0034849170711,77.24333253466503,Commercial,1009.23,3.4,5.84,772,3962.07,73.52
548359FB,IN-SEH-6C6D,IND,Sehore,23.05079464403523,76.7324659615672,Residential,511.55,7.2,0.11,268,22575.68,81.88
2F04D80A,IN-SEH-DBFA,IND,Sehore,23.462699679739952,77.21566185610617,Agricultural,685.67,8.19,7.01,1011,3526.37,64.74
6EDEE4DD,IN-SEH-F274,IND,Sehore,23.032170160499593,76.5917650333106,Commercial,985.7,0.77,4.2,1587,5438.67,72.81
DEB06258,IN-SEH-611C,IND,Sehore,22.79307353843786,77.44088231673165,Residential,0.0,6.6,4.51,505,4737.38,67.38
033AD8DB,IN-SEH-99C5,IND,Sehore,22.899638454330912,76.81052655045522,Industrial,336.69,4.66,4.23,719,5071.48,87.91
AB200F58,IN-SEH-4ADF,IND,Sehore,22.82342590363706,77.07289199420487,Industrial,410.79,1.23,0.13,1968,22851.98,73.46
EFC22E57,IN-SEH-2805,IND,Sehore,23.00585612269213,76.97613111869087,Residential,441.14,3.36,1.81,100,8929.66,93.49
59448604,IN-SEH-61B5,IND,Sehore,22.858963735889102,77.48112579104996,Industrial,208.35,4.91,2.2,597,8055.2,95.95
B3A181B4,IN-SEH-E7DB,IND,Sehore,22.823747462559098,76.64649586236033,Commercial,654.52,8.72,1.21,877,11648.09,78.73
110EF3C4,IN-SEH-8108,IND,Sehore,22.876048708962887,76.80218158943318,Residential,0.0,2.48,1.52,2223,10815.16,71.27
D25DD85E,IN-JAB-F473,IND,Jabalpur,23.531739304826058,80.02613718960099,Agricultural,382.24,3.05,0.7,4034,16278.22,96.51
7D184AA0,IN-JAB-D7DF,IND,Jabalpur,23.20140908931678,79.67391920300808,Residential,274.89,6.23,5.17,100,4092.1,61.4
FB311E37,IN-JAB-4F5C,IND,Jabalpur,23.476565454387142,80.07604241625405,Residential,408.42,2.15,2.02,1047,8701.53,81.55
7498A949,IN-JAB-06B4,IND,Jabalpur,23.181901210348276,79.83425322661203,Commercial,320.47,4.83,2.01,617,8559.89,83.03
5CFCDD98,IN-JAB-4C25,IND,Jabalpur,23.391485783545406,79.93321575810143,Commercial,365.82,6.75,4.36,609,4904.31,63.21
EE9ED731,IN-JAB-6C47,IND,Jabalpur,23.03273577736361,79.83504816830475,Residential,252.71,3.42,0.19,570,21312.17,96.5
096EDCA9,IN-JAB-402F,IND,Jabalpur,23.569021662188746,80.12256498930641,Commercial,44.46,0.45,7.51,1204,3418.23,45.64
144A0F41,IN-JAB-056A,IND,Jabalpur,23.27876647092303,80.1900034162534,Residential,372.92,6.83,2.51,227,7222.54,70.76
11A6A0A4,IN-JAB-04F0,IND,Jabalpur,23.37209851128063,80.0098433363193,Agricultural,432.69,5.11,5.5,100,3886.5,61.81
DF47168F,IN-JAB-5350,IND,Jabalpur,23.457649782035055,79.98475204421429,Residential,959.88,0.16,2.17,743,8175.07,82.72
887302EB,IN-JAB-388E,IND,Jabalpur,23.385646570489293,79.76706624575449,Residential,693.87,6.37,3.61,337,5553.52,85.46
B84FF852,IN-JAB-5DFB,IND,Jabalpur,23.495685609380516,79.98350987128973,Agricultural,321.34,4.5,2.16,4312,9644.13,92.79
BAB125C4,IN-JAB-D4FD,IND,Jabalpur,23.51758350995001,80.15861843925396,Industrial,548.27,4.61,2.4,100,7393.36,88.2
5A73EBE3,IN-JAB-78B2,IND,Jabalpur,23.183921777375303,79.65093166973698,Residential,439.86,8.84,10.47,1714,2864.69,33.04
DFC99278,IN-JAB-5A0A,IND,Jabalpur,23.349708826261885,80.49461950825376,Industrial,364.65,8.74,0.51,631,16827.89,76.96
8F1DACE2,IN-NAR-BD07,IND,Narsimhapur,22.93459691845764,78.6636671450741,Industrial,229.8,4.82,2.31,2182,8420.43,79.88
B2EBC28B,IN-NAR-C8BE,IND,Narsimhapur,22.777623000650365,78.83313273872966,Agricultural,725.7,1.79,6.41,17316,10301.24,71.09
50FF7FDB,IN-NAR-DF2A,IND,Narsimhapur,22.68565479461756,79.3677415105376,Agricultural,337.55,0.36,6.95,2186,4017.75,56.88
6C57BFE5,IN-NAR-E96E,IND,Narsimhapur,23.145272592679945,79.21892897133735,Industrial,465.29,5.7,2.29,309,7726.55,68.24
A8F9B6EC,IN-NAR-FFEE,IND,Narsimhapur,23.025373761690528,79.13896433803141,Commercial,0.0,5.62,2.51,2675,8198.85,78.03
0C346B25,IN-NAR-92E8,IND,Narsimhapur,22.95027641837882,78.99599913689592,Industrial,359.06,2.15,2.92,302,6495.73,79.56
5F1CC916,IN-NAR-5951,IND,Narsimhapur,22.96094484935308,78.79690217329642,Residential,476.83,2.77,1.66,1430,9968.0,70.74
36573C24,IN-NAR-D809,IND,Narsimhapur,22.71716667311412,79.4004784115042,Agricultural,659.72,5.98,2.89,2588,7462.94,91.67
559DE16C,IN-NAR-CBE5,IND,Narsimhapur,22.949945876571025,79.49913999434543,Industrial,704.07,1.06,4.97,2432,5160.07,71.06
E7314A5D,IN-NAR-B38E,IND,Narsimhapur,23.16675845961274,79.22571504655842,Industrial,734.34,3.2,10.14,1026,2653.99,31.75
6564FB60,IN-NAR-5A75,IND,Narsimhapur,23.01238794651811,79.44033704013344,Industrial,312.23,6.34,3.66,913,5725.74,80.84
9A318CF9,IN-NAR-2B27,IND,Narsimhapur,23.214600735548746,78.90792340336577,Industrial,647.27,2.52,3.17,1588,6623.37,84.13
561CFB3F,IN-NAR-19AC,IND,Narsimhapur,23.145686674217156,79.17864073206711,Industrial,153.08,1.92,2.05,274,8309.67,86.92
2C38DDF7,IN-NAR-BE21,IND,Narsimhapur,22.68472149740121,79.29876022459086,Commercial,254.37,4.91,3.4,108,5727.98,84.26
19729F89,IN-NAR-355D,IND,Narsimhapur,22.788464090389983,79.32948100905423,Industrial,793.76,2.31,5.51,1528,4450.0,50.59
8C51EB06,IN-NAR-ED1E,IND,Narsimhapur,22.83048737766317,79.21316168708567,Residential,479.21,3.15,2.25,331,7826.13,71.48
B8F35CA4,IN-PAN-DC9F,IND,Panna,24.440257364435944,79.95884178407753,Agricultural,579.69,0.25,5.45,1139,4329.9,57.57
86E543D9,IN-PAN-2978,IND,Panna,24.965076539648727,80.20917973320273,Residential,1040.75,2.65,0.1,2056,23549.97,66.79
8EF90E0D,IN-PAN-1405,IND,Panna,24.6308115991768,79.87505921748418,Agricultural,393.75,1.74,8.22,247,2811.9,56.77
06D80058,IN-PAN-834C,IND,Panna,24.015776454547993,79.95647832451247,Agricultural,527.91,6.36,1.58,332,9830.93,86.84
CD71B38B,IN-PAN-ED92,IND,Panna,24.56512560945745,80.38172118490789,Residential,729.16,4.86,0.88,588,13529.19,69.61
96AA19E0,IN-PAN-5108,IND,Panna,24.20777039199155,80.44910880002612,Industrial,236.25,0.07,0.48,525,17156.6,97.99
F130F7F2,IN-PAN-310A,IND,Panna,24.328483593367,80.15948908844321,Industrial,738.29,1.08,1.24,476,11373.59,89.75
CB6EB076,IN-PAN-9816,IND,Panna,24.264457008442296,80.01493735406883,Commercial,0.0,0.68,1.99,283,8473.73,97.37
602DCD11,IN-PAN-8CAC,IND,Panna,24.13592790959025,80.26956083174424,Industrial,675.29,0.64,4.38,512,4848.65,59.43
E7D52A4D,IN-PAN-1000,IND,Panna,24.152729117562004,80.60055810442817,Agricultural,198.59,3.24,2.31,2098,8403.32,86.64
9B124B45,IN-UJJ-94F8,IND,Ujjain,23.591081387408455,75.30240017839483,Commercial,1049.49,1.73,1.14,1139,12133.32,73.75
CE466C7C,IN-UJJ-097E,IND,Ujjain,23.432635577995672,75.4030431693005,Residential,163.21,4.7,4.53,2610,5561.02,84.38
6763F422,IN-UJJ-559B,IND,Ujjain,23.38044210052685,75.59561134639537,Residential,407.11,1.2,3.48,671,5849.41,86.97
AC19BEED,IN-UJJ-8E92,IND,Ujjain,23.07336231318486,75.37633618311446,Industrial,374.03,3.7,1.15,594,11854.89,79.91
C5B095E1,IN-UJJ-2535,IND,Ujjain,23.29397374141767,76.17345130713005,Commercial,381.44,3.4,5.14,100,4114.76,57.53
A8718BE3,IN-UJJ-884C,IND,Ujjain,23.105151607898513,75.32235387518396,Commercial,658.25,5.32,4.05,552,5173.93,88.58
31865F22,IN-UJJ-B629,IND,Ujjain,23.178370931854005,76.06044636909172,Commercial,916.71,1.17,2.78,12112,11451.8,65.41
B66D7D48,IN-UJJ-1C14,IND,Ujjain,23.689236043586604,75.79429676764725,Agricultural,261.0,5.38,1.82,100,8889.71,86.77
252C8F17,IN-UJJ-D7B0,IND,Ujjain,23.609589272812773,75.69920970030297,Industrial,537.36,1.23,1.26,275,11187.32,71.88
4E0725FF,IN-UJJ-7787,IND,Ujjain,23.48488930299166,75.64165759336434,Residential,466.97,1.62,2.73,608,6949.55,85.73
3F0A69B0,IN-UJJ-2C8B,IND,Ujjain,23.418733758461375,75.54584015313998,Commercial,10.6,6.29,5.32,1487,4552.41,70.9
3C87B008,IN-UJJ-983F,IND,Ujjain,23.584634115710234,75.67407590614168,Agricultural,442.57,0.34,1.54,452,10005.44,78.57
056A287B,IN-UJJ-2B48,IND,Ujjain,23.566382265756125,75.62601894314564,Agricultural,839.07,3.98,6.23,233,3551.7,48.89
0C9B40C5,IN-UJJ-E08F,IND,Ujjain,23.65010036330396,75.8108711602534,Agricultural,694.13,5.28,2.83,2147,7379.06,64.43
5980AD49,IN-UJJ-CEF4,IND,Ujjain,23.388108888992114,75.602113139367,Industrial,658.07,2.17,6.44,380,3511.23,42.64
EBFE2860,IN-REW-70DF,IND,Rewa,24.865865397528538,81.2003613865098,Residential,534.46,3.76,7.19,824,3381.08,51.65
89C7A79F,IN-REW-5A9F,IND,Rewa,24.90049823643974,81.14872249147095,Industrial,304.67,2.59,3.86,1147,5605.27,92.0
6F996F88,IN-REW-CF3A,IND,Rewa,24.608639919487107,81.916341673812,Agricultural,249.95,10.29,5.37,879,4275.84,57.28
CCFE43AE,IN-REW-6E12,IND,Rewa,25.025189418526896,81.31894525056114,Industrial,423.12,2.92,7.07,442,3273.68,40.71
D52E10DB,IN-REW-4E50,IND,Rewa,24.785545817340623,81.32082921087938,Industrial,461.5,1.45,3.41,1277,6175.49,83.61
BE088C26,IN-REW-FBF1,IND,Rewa,24.63998719248745,81.76277258362506,Agricultural,210.08,4.97,5.78,875,4034.97,64.42
DF46A59B,IN-REW-EF99,IND,Rewa,25.17439142415673,81.55111657989112,Industrial,196.81,3.85,3.02,783,6524.5,94.96
8C71F33C,IN-REW-94B3,IND,Rewa,24.75079494608604,81.72370130437253,Residential,505.81,5.39,5.29,463,4157.86,63.98
D93DD86A,IN-REW-178A,IND,Rewa,24.92609175564303,81.3721398295147,Agricultural,822.55,10.69,2.07,2835,9274.21,79.05
791BDEC7,IN-REW-C14B,IND,Rewa,24.608820891328044,81.8030328769142,Agricultural,625.59,10.45,0.76,551,14412.48,95.39
44D06F15,IN-REW-8E45,IND,Rewa,25.03006192146918,81.45497345842324,Industrial,570.47,1.0,2.53,167,7142.39,66.42
5210DD09,IN-DIN-F52B,IND,Dindori,22.945076942318373,80.8824891157475,Commercial,252.17,6.83,2.25,304,7815.08,81.07
94AB60FE,IN-DIN-AB90,IND,Dindori,22.77148093744133,81.1673546463722,Industrial,85.31,1.89,4.2,100,4844.25,65.43
30DF05F9,IN-DIN-E8C8,IND,Dindori,22.68046473835344,80.9500431806569,Industrial,877.12,6.22,3.45,859,5961.91,71.79
A7D4AAAF,IN-DIN-1AC5,IND,Dindori,22.865156925518946,80.78318541169084,Commercial,1038.53,1.25,3.5,252,5660.04,84.82
CD8892C9,IN-DIN-42BC,IND,Dindori,22.63211266328485,81.42634755654741,Agricultural,790.35,2.23,1.87,276,8835.32,70.6
6F50A572,IN-DIN-CA75,IND,Dindori,23.1595907043517,81.00187035979117,Commercial,610.8,0.27,1.42,1936,11084.56,68.64
56EA56B5,IN-DIN-B621,IND,Dindori,22.96324506109786,80.90191627011123,Agricultural,0.0,5.32,1.34,657,10936.89,76.93
7A049E7A,IN-DIN-D945,IND,Dindori,23.128240934026383,80.73521766766326,Residential,0.0,5.86,3.74,100,5314.12,77.22
C6A0A274,IN-DIN-E804,IND,Dindori,23.23056347209676,80.54490596919489,Agricultural,252.94,6.66,4.07,100,4967.24,63.51
2C9D65E1,IN-DIN-8BB3,IND,Dindori,23.25079281814923,80.72676413836119,Residential,195.99,9.18,3.4,3885,7240.96,68.91
DA8DE5DE,IN-DIN-C29C,IND,Dindori,23.110365916533585,80.91911071872525,Commercial,759.57,4.05,1.28,190,11038.96,65.41
9A592058,IN-DIN-E81F,IND,Dindori,23.31500016337544,80.72400206399566,Commercial,786.78,0.69,4.37,227,4750.07,70.76
058B6D43,IN-DIN-E3C7,IND,Dindori,23.0915902562322,80.81593273264313,Commercial,960.34,5.61,1.09,401,12134.03,78.14
181D30A7,IN-DIN-7F34,IND,Dindori,23.0635082756637,80.81008108477106,Agricultural,449.78,6.82,4.94,435,4381.17,76.14
578501D6,IN-DIN-D2D4,IND,Dindori,22.719192091937273,81.11502670489241,Agricultural,1161.66,6.0,6.16,166,3556.16,59.6
C778DEFB,IN-DIN-A381,IND,Dindori,23.14149062576496,80.94832669360251,Agricultural,915.74,0.94,5.81,298,3792.29,52.66
DCDD4259,IN-DIN-0D34,IND,Dindori,22.513168844739756,81.1523358841279,Agricultural,441.29,5.3,3.37,628,5969.94,87.0
38A1A1CE,IN-DIN-1554,IND,Dindori,22.77620812660533,81.06099732087696,Commercial,176.91,5.18,4.81,2522,5313.24,68.97
EE4E18B3,IN-DIN-B45C,IND,Dindori,23.25221360533555,80.61485046852044,Commercial,281.92,14.15,6.77,361,3362.71,56.1
53CF1162,IN-DIN-146C,IND,Dindori,22.597060111136454,81.45581017577777,Industrial,869.41,8.35,7.98,4625,4633.18,37.95
4B0EB0A9,IN-DIN-8C97,IND,Dindori,22.892564122211905,81.11818546336463,Agricultural,669.45,8.18,3.02,521,6424.84,85.28
B58404D1,IN-DIN-8C08,IND,Dindori,23.21532463057611,80.6493182455345,Industrial,459.92,3.84,3.52,5508,7739.85,76.42
8F72B5FA,IN-BAL-5E72,IND,Balaghat,21.869351978183513,80.33742664364316,Agricultural,952.4,2.6,1.91,654,8857.74,76.94
38D155BC,IN-BAL-AA27,IND,Balaghat,21.629271894767765,80.21876368627572,Agricultural,0.0,2.54,10.1,735,2546.01,57.31
37EC7777,IN-BAL-A0D2,IND,Balaghat,22.21022898962995,80.51051913242283,Industrial,163.54,4.7,1.08,433,12218.43,72.5
A7AEFA08,IN-BAL-9334,IND,Balaghat,22.086338917221678,80.42661867477634,Commercial,397.29,4.13,5.48,1363,4401.26,82.32
67B5EE0E,IN-BAL-755F,IND,Balaghat,21.814842520645087,80.3411959056019,Commercial,483.66,5.89,1.85,522,8995.3,78.1
CFB2E756,IN-BAL-E0E3,IND,Balaghat,21.827362690442065,79.88068612601427,Industrial,950.42,4.48,3.24,1693,6577.18,77.38
930F063A,IN-BAL-24BC,IND,Balaghat,21.94861963581415,80.21071823604888,Agricultural,943.42,8.67,4.27,848,5080.09,65.87
D9F430B5,IN-BAL-E93D,IND,Balaghat,22.21636608727629,80.28471360416631,Agricultural,671.74,8.55,1.22,360,11399.34,90.87
F77A3EAE,IN-BAL-229E,IND,Balaghat,21.6854941234437,80.53051619125254,Commercial,416.88,6.96,5.23,4335,5747.99,75.41
0CA24010,IN-BAL-7725,IND,Balaghat,22.213567687792438,80.64904725190756,Industrial,462.75,6.56,11.02,279,2192.23,50.48
CF379F1B,IN-BAL-0089,IND,Balaghat,22.2807327086871,80.99646159730376,Agricultural,650.51,0.16,6.76,1613,3868.02,55.07
4C1DDC6B,IN-BAL-48F7,IND,Balaghat,21.892392593375668,80.43317604565381,Residential,777.69,5.81,6.02,100,3600.54,50.97
2FA09F97,IN-BAL-DC2E,IND,Balaghat,21.58650356903085,79.55497313846912,Agricultural,496.28,8.37,5.29,347,4112.67,55.8
09E1FBBE,IN-BAL-030A,IND,Balaghat,21.998658254633202,80.21708083719237,Residential,736.44,4.8,1.36,571,10829.58,65.97
9AE1489E,IN-BAL-6FEF,IND,Balaghat,22.12184900818273,80.36680339632045,Residential,294.91,0.25,5.45,267,3983.91,54.69
FEE7B370,IN-BAL-2CE8,IND,Balaghat,21.93006289612185,79.94129139783804,Industrial,784.55,4.47,1.0,158,12538.55,66.59
8D4CFFA8,IN-BAR-0A28,IND,Barwani,22.01381324718479,75.37085282481294,Industrial,921.25,3.83,1.54,192,9934.38,76.12
9D3C7380,IN-BAR-E805,IND,Barwani,22.01367571301006,74.71259952675311,Residential,672.42,1.64,1.35,274,10762.87,78.2
DF3B19B2,IN-BAR-86CF,IND,Barwani,22.11667791118144,75.30420025349036,Agricultural,504.71,2.3,3.02,853,6558.44,76.32
59014B76,IN-BAR-9699,IND,Barwani,21.973526120264406,74.68733967751916,Industrial,740.83,14.42,3.35,729,6041.41,77.04
A0E15E02,IN-BAR-8BFE,IND,Barwani,21.38963473016461,75.6290473718346,Commercial,931.65,5.15,2.78,459,6799.96,74.59
C6449D9D,IN-BAR-7123,IND,Barwani,21.64863975134135,75.43356702536656,Agricultural,560.8,3.31,4.18,722,5117.65,85.28
6E013DB3,IN-BAR-1708,IND,Barwani,21.879807839915262,74.73349437777254,Residential,518.7,3.62,1.32,711,11040.91,72.38
AEEEF35A,IN-BAR-D1D6,IND,Barwani,21.514123563043665,75.16034040179332,Industrial,268.17,1.77,3.87,6106,7577.26,70.14
6DF2648D,IN-BAR-8409,IND,Barwani,21.747099877489795,74.7553268067628,Commercial,0.0,1.12,3.41,239,5760.4,90.58
6EBB8A1F,IN-BAR-995A,IND,Barwani,21.796011384072912,74.5369058173095,Agricultural,445.0,2.05,2.47,3903,8761.3,70.34
D87FC2B7,IN-BAR-AD17,IND,Barwani,21.624863293144436,74.96295673312954,Residential,1120.47,3.38,4.19,494,5012.01,65.31
7B00E161,IN-BAR-7EBE,IND,Barwani,21.816179404810374,75.0584302478878,Agricultural,234.21,8.0,9.9,1650,2954.02,37.42
FA263F86,IN-SAT-DC69,IND,Satna,24.357421828917488,81.25052800700645,Residential,172.07,7.35,7.11,165,3147.88,45.1
9E37D4A5,IN-SAT-783A,IND,Satna,24.272367789080796,80.78844568736379,Commercial,669.04,4.95,5.04,223,4230.99,77.17
9137FED0,IN-SAT-E9AF,IND,Satna,24.129998093931786,80.68776430231352,Residential,909.01,2.99,1.08,100,12087.33,64.37
89461C85,IN-SAT-5182,IND,Satna,24.66572773268097,80.66255199902302,Residential,79.01,3.24,2.24,1660,8384.3,88.46
A80A4670,IN-SAT-517D,IND,Satna,24.38939475282728,80.81313534097957,Residential,205.86,1.29,5.72,2187,4593.71,72.68
0A497ADA,IN-SAT-D9BE,IND,Satna,24.371364100143307,81.13867788392974,Agricultural,15.96,7.0,2.85,995,6893.93,70.95
AA785338,IN-SAT-9A9B,IND,Satna,24.150826362143487,81.12591498005033,Agricultural,433.84,4.92,0.76,404,14390.68,88.45
90B34DC7,IN-SAT-A38D,IND,Satna,24.388057314261886,80.4911070979302,Residential,445.22,2.88,1.19,2482,12388.69,81.32
4ABEA10A,IN-SAT-3E6D,IND,Satna,24.266433847249125,81.19130578483346,Residential,290.81,2.69,0.67,502,15212.69,96.95
3DF8B22F,IN-SAT-5608,IND,Satna,24.644916256734795,80.61812897855228,Industrial,373.01,3.62,2.36,624,7688.43,71.53
6E35DA81,IN-SAT-CB5D,IND,Satna,24.7675949541083,80.90174850410864,Commercial,259.54,2.18,2.18,475,8058.25,76.2
EEF21BAC,IN-SAT-8658,IND,Satna,25.02359416752224,80.59744131125453,Commercial,515.49,6.25,8.39,1057,3083.92,52.35
D7AF62AC,IN-CHH-39EF,IND,Chhatarpur,24.566394857167097,79.06693139025057,Industrial,613.13,6.65,1.25,100,11138.78,78.01
8865299D,IN-CHH-CBF9,IND,Chhatarpur,24.763423285861762,79.68452089961094,Commercial,835.53,4.35,2.81,3925,8132.24,73.22
8F6C723E,IN-CHH-7ED9,IND,Chhatarpur,25.064192671752075,79.4445663307216,Commercial,740.95,3.15,0.86,825,13798.83,91.51
AE465AF2,IN-CHH-3F7C,IND,Chhatarpur,25.342843802683973,80.25250681379183,Commercial,701.55,4.91,2.07,2333,9074.7,82.36
5F395ED7,IN-CHH-06D5,IND,Chhatarpur,25.22560028425921,80.15180010604429,Agricultural,677.74,7.66,3.34,2357,6698.53,71.86
5B2BF7DE,IN-CHH-1D7A,IND,Chhatarpur,24.624210434145297,79.4265920219243,Residential,472.82,5.79,0.94,756,13184.17,94.86
54DD32B4,IN-CHH-C864,IND,Chhatarpur,24.715873307486184,79.44597917363913,Residential,146.27,15.36,2.07,1565,8777.41,82.67
01E886FF,IN-CHH-A4D7,IND,Chhatarpur,24.670464722666793,79.6591468782846,Industrial,697.07,0.69,4.8,3133,5560.29,63.42
FF03C530,IN-CHH-A43B,IND,Chhatarpur,25.077806579343186,80.14399048792087,Residential,738.0,3.44,0.96,338,12882.23,76.63
B9B6831B,IN-CHH-697F,IND,Chhatarpur,24.53804667395918,79.60415951581764,Commercial,956.97,1.82,1.05,6107,14621.16,76.33
C9570BB6,IN-CHH-9356,IND,Chhatarpur,25.237469453205996,80.33601286546725,Agricultural,77.92,0.51,4.23,391,4936.99,72.17
0D92DB04,IN-CHH-D2B2,IND,Chhatarpur,24.581855135045306,79.21409306734074,Agricultural,626.9,6.18,5.45,696,4154.81,80.04
6160C151,IN-IND-1103,IND,Indore,22.563493107831267,75.81714306239792,Residential,757.67,5.98,10.47,125,2229.38,45.75
6FAF0982,IN-IND-0AE1,IND,Indore,22.696588933296095,76.0570688480498,Residential,104.11,7.92,0.67,185,15044.03,69.19
C02A1DDA,IN-IND-CBFC,IND,Indore,22.927895439045066,75.6810521395289,Commercial,301.54,3.11,1.75,1717,9763.21,88.9
38AC385E,IN-IND-BBB2,IND,Indore,22.97984589439319,75.61399985292357,Industrial,602.75,4.03,2.76,415,6815.33,82.99
E8BEABDF,IN-IND-A911,IND,Indore,22.658892372201255,75.81599130809407,Agricultural,497.49,5.28,2.05,450,8368.15,90.52
8E428073,IN-IND-09F2,IND,Indore,22.72812796401598,75.7220852988636,Industrial,98.0,2.07,5.7,1349,4271.8,64.24
82EC092B,IN-IND-71FF,IND,Indore,22.84735694600417,75.98372026861608,Industrial,621.99,7.26,1.4,294,10535.94,89.73
C25E3E1D,IN-IND-78AF,IND,Indore,23.032298091273795,75.75496287915354,Industrial,171.57,1.54,2.94,100,6380.26,81.89
4B5CCD80,IN-IND-4266,IND,Indore,22.54941755243331,75.95471946578688,Agricultural,420.88,0.16,3.91,1420,5664.97,76.19
FDF89194,IN-IND-9205,IND,Indore,22.950425645779255,75.52977044927954,Commercial,1129.22,6.96,1.69,341,9420.68,68.18
2FF2E664,IN-IND-5769,IND,Indore,22.81630199675704,75.72402748067869,Industrial,0.0,0.03,1.39,275,10573.09,71.35
A9299E56,IN-IND-E335,IND,Indore,22.476331675797024,75.81355451936363,Commercial,507.59,4.98,2.9,100,6446.36,84.67
938AEAF7,IN-IND-249B,IND,Indore,22.73243656455626,75.76618965460445,Agricultural,784.43,3.77,0.75,1013,14713.71,74.37
6D98E092,IN-IND-9358,IND,Indore,22.88127192428988,75.78490067184086,Industrial,354.72,0.74,6.28,100,3473.29,52.42
F6FB2E0D,IN-IND-CFFA,IND,Indore,23.018389914990905,75.86777361445937,Residential,791.09,0.84,2.81,1549,7179.57,68.42
F09586EE,IN-IND-7A46,IND,Indore,22.64613132098817,75.67542690455929,Agricultural,806.45,1.35,1.88,436,8844.13,80.54
05EA4991,IN-IND-7360,IND,Indore,22.445719908295544,75.81346347824254,Commercial,791.03,0.84,2.77,464,6810.17,68.9
9CE3BC0D,IN-IND-9BE3,IND,Indore,22.506546362482826,75.62392364897116,Commercial,558.7,7.92,4.23,795,5100.94,83.0
829098BD,IN-RAT-E7E0,IND,Ratlam,23.681743169528517,75.61584417919674,Residential,69.12,3.64,2.23,1477,8340.17,82.83
58742FFD,IN-RAT-FA49,IND,Ratlam,23.59684014921067,75.04655232328487,Agricultural,419.99,3.98,2.63,1596,7517.03,90.53
E2DE80AC,IN-RAT-CEB1,IND,Ratlam,23.467168929409535,75.13392009592694,Commercial,536.82,4.76,1.24,456,11321.43,68.92
58F7413B,IN-RAT-F750,IND,Ratlam,23.566215279522314,74.89730392413519,Agricultural,647.5,7.7,2.74,446,6862.19,88.48
CB5248AC,IN-RAT-E9CB,IND,Ratlam,23.664581906935076,75.26261516567806,Agricultural,449.52,5.91,1.01,687,12687.53,70.14
D0145CC9,IN-RAT-6EFB,IND,Ratlam,23.284272240972037,74.83693648696926,Commercial,419.9,7.66,3.4,100,5718.7,91.56
4BEAA07A,IN-RAT-6304,IND,Ratlam,23.706484543469013,74.97147615201852,Residential,492.4,0.29,2.93,342,6495.61,76.3
8B833E4A,IN-RAT-71BE,IND,Ratlam,23.723700197302964,75.68326168278718,Industrial,261.86,8.08,4.59,1650,5133.6,62.0
FBBF5515,IN-RAT-8738,IND,Ratlam,23.500113138522966,74.77672041612021,Industrial,619.41,1.81,6.07,945,3913.88,70.57
ED56C974,IN-HAR-E539,IND,Harda,22.074779406765483,77.07081620991381,Residential,367.97,4.07,0.95,2551,13817.71,73.21
8FA002C3,IN-HAR-7927,IND,Harda,22.453871785577636,77.02035572393505,Commercial,609.23,0.15,0.86,1433,14039.89,95.9
36B05036,IN-HAR-9553,IND,Harda,22.123762468835643,77.08091903368036,Residential,152.54,4.67,3.41,100,5709.04,74.33
95FA6FFD,IN-HAR-8B0E,IND,Harda,22.506828859790126,77.10780024352782,Industrial,0.0,0.86,0.65,1083,15572.48,70.22
BCBD1000,IN-HAR-ADE7,IND,Harda,22.34806317092534,76.83501260664025,Residential,340.69,4.94,3.95,2086,5889.79,84.55
5B36B02C,IN-HAR-B062,IND,Harda,22.41791503331573,77.09754666315098,Industrial,0.0,11.52,11.11,447,2242.84,55.91
7BEBB76D,IN-HAR-5282,IND,Harda,22.133356163593767,77.18745870809695,Commercial,510.86,9.46,1.4,810,10740.95,84.66
CF87447F,IN-HAR-17DD,IND,Harda,22.336552873279313,76.82955621655877,Agricultural,705.25,0.71,0.17,263,21463.69,88.99
956BB44F,IN-HAR-C9C3,IND,Harda,22.50692900474984,77.21143128649818,Residential,848.18,2.83,4.08,472,5106.61,68.37
E19943ED,IN-HAR-8B09,IND,Harda,22.13876492158392,77.25921924572198,Agricultural,216.12,0.8,10.82,2976,3305.73,51.19
4BA595CB,IN-HAR-3E45,IND,Harda,22.100969973467596,77.2426074776663,Industrial,566.35,5.6,2.7,2156,7619.57,85.9
399642E4,IN-HAR-1A11,IND,Harda,22.354864347488206,77.05520005857906,Commercial,933.32,3.31,0.44,197,17469.62,74.23
8428AC1E,IN-HAR-3338,IND,Harda,22.226954864159172,77.30351356496882,Residential,231.76,5.43,0.41,192,17809.37,77.6
7EEEC70E,IN-HAR-B2B0,IND,Harda,22.00570853377199,77.07625024914601,Residential,688.28,6.91,1.52,100,9951.18,82.05
1F0EACC4,IN-HAR-68DD,IND,Harda,22.422688559270526,77.10503538159358,Industrial,559.89,1.69,10.05,1353,2803.58,41.13
DC008765,IN-HAR-5BC4,IND,Harda,21.984472981364352,77.22539638773169,Industrial,320.05,0.79,2.07,845,8471.34,67.47
6B7632A3,IN-HAR-9D60,IND,Harda,22.487972510520304,77.01667403485098,Agricultural,950.13,2.35,2.69,1310,7305.4,82.42
BC186132,IN-HAR-0AB3,IND,Harda,22.31293026749722,76.9523523642548,Industrial,195.31,3.36,3.59,127,5499.59,68.36
FDAD4990,IN-SAG-F9CD,IND,Sagar,24.061170671809727,79.13844542519841,Agricultural,709.69,4.54,5.85,2693,4726.41,69.08
57FAFD72,IN-SAG-064E,IND,Sagar,24.062019517028823,78.81467256290018,Residential,25.82,10.44,7.61,1448,3482.69,44.67
955D500B,IN-SAG-7FF8,IND,Sagar,23.343292830046884,79.16541357240918,Industrial,385.7,2.67,7.08,100,3134.98,61.52
19246F3D,IN-SAG-6797,IND,Sagar,23.267253128928537,78.99942976671623,Commercial,0.0,0.68,1.23,683,11508.42,98.51
D386B8BA,IN-SAG-F14B,IND,Sagar,23.484112182224216,78.98776190814864,Commercial,425.86,4.36,0.7,855,15083.64,79.51
E2669A58,IN-SAG-0F11,IND,Sagar,23.382008399209376,78.9579349225719,Industrial,1116.15,6.7,2.31,523,7762.46,69.32
6D532B71,IN-SAG-3788,IND,Sagar,23.81087705020304,78.84184381385815,Residential,586.37,7.23,7.75,2656,3920.29,47.42
31E5AD31,IN-SAG-0157,IND,Sagar,24.388583642751062,79.18249703272632,Agricultural,386.52,2.23,3.06,329,6288.67,78.03
97B9B64C,IN-SAG-0AB2,IND,Sagar,23.814389986795767,78.58492501109502,Industrial,436.94,7.08,13.53,267,1827.38,31.0
DFB96185,IN-SAG-60D5,IND,Sagar,23.518351398398174,79.3175154915671,Industrial,617.87,0.83,11.57,4540,3804.73,39.77
3F6BD87E,IN-SAG-8ECB,IND,Sagar,23.452741134354294,79.08593656610714,Residential,541.52,3.82,3.63,254,5503.18,83.38
BB59EA45,IN-SAG-3983,IND,Sagar,23.489246504957013,78.94252208102525,Agricultural,128.9,5.76,4.19,174,4886.36,86.75
94CDD13E,IN-SAG-17ED,IND,Sagar,23.791180355495452,79.0565264787337,Agricultural,571.63,3.2,3.85,459,5334.99,74.3
057123EF,IN-SAG-B425,IND,Sagar,23.869603916692775,78.49812344166436,Industrial,24.31,5.5,2.57,540,7217.09,71.37
69D9F3C9,IN-NEE-06BB,IND,Neemuch,24.486701101366112,75.36825357576438,Agricultural,506.53,5.11,5.67,243,3847.32,78.39
11FDF32F,IN-NEE-ADCB,IND,Neemuch,24.508799882112093,75.32474782229372,Residential,681.04,0.9,13.63,492,1905.3,31.01
7A0EDC36,IN-NEE-185B,IND,Neemuch,24.537500640261815,74.84407721952671,Residential,741.23,3.22,8.69,1065,3006.11,45.88
B948482C,IN-NEE-F64A,IND,Neemuch,24.68498216510284,74.81455026444846,Agricultural,635.83,5.36,3.83,2786,6286.23,83.41
EA195F16,IN-NEE-E78A,IND,Neemuch,24.297967371875494,74.80723841327274,Industrial,668.23,1.77,10.52,654,2430.97,27.42
CF1E60E3,IN-NEE-1570,IND,Neemuch,24.958823736178022,75.21340158961891,Commercial,302.84,1.32,0.98,636,12874.6,80.14
1D46EBB6,IN-NEE-5F86,IND,Neemuch,24.370637607266914,75.03276704894188,Residential,535.03,8.43,5.65,329,3888.56,66.48
633A8132,IN-NEE-7801,IND,Neemuch,24.60435449259706,74.82102629258115,Residential,526.24,3.53,1.17,854,11878.73,88.34
8EDD30B1,IN-NEE-42E4,IND,Neemuch,24.859536848246737,75.32868883050136,Residential,583.55,1.38,1.12,462,11955.1,80.1
6FFF2E4F,IN-NEE-422A,IND,Neemuch,24.887952830770523,75.22441974059171,Industrial,606.46,5.2,1.13,165,11808.57,79.43
7E92E7D7,IN-NEE-F9E6,IND,Neemuch,24.920794516952032,74.85382505941104,Commercial,742.36,0.52,16.36,1106,1883.02,31.44
7BABFD15,IN-NEE-5F2D,IND,Neemuch,24.460197250951172,74.98181574172453,Industrial,563.11,4.75,1.73,2693,10242.18,81.91
4D46586B,IN-NEE-9905,IND,Neemuch,24.8473370064527,75.08607744187931,Commercial,631.2,1.93,4.85,100,4310.29,64.03
4552C552,IN-NEE-9B1C,IND,Neemuch,24.465087298706443,74.87014774351995,Residential,127.82,5.45,1.13,354,11872.32,82.05
06D78751,IN-TIK-7C97,IND,Tikamgarh,24.96477251825454,79.30022509561985,Industrial,353.09,1.96,0.81,275,13889.81,86.1
7BE123C6,IN-TIK-1004,IND,Tikamgarh,24.969745777479595,78.83958267067584,Agricultural,883.57,4.91,3.27,1389,6404.7,77.61
341FA3A3,IN-TIK-9517,IND,Tikamgarh,24.683111925650394,78.83852457767831,Residential,179.15,3.99,3.9,963,5487.29,66.22
C64B7966,IN-TIK-4F2B,IND,Tikamgarh,25.14761278460433,78.91915297595776,Commercial,120.87,6.85,6.73,732,3526.57,42.73
1E916AEF,IN-TIK-6C9C,IND,Tikamgarh,25.00336632510386,78.99114295040427,Commercial,338.02,6.68,6.53,3573,4747.81,59.25
BD1D4A23,IN-TIK-69E7,IND,Tikamgarh,24.65815202183947,78.91369773752221,Agricultural,357.03,6.52,2.16,248,8006.19,91.78
45C2EC8D,IN-TIK-BEF4,IND,Tikamgarh,24.940756911671045,79.31595225089605,Commercial,562.24,2.12,0.64,1912,16030.82,81.15
285B4A64,IN-TIK-6DFD,IND,Tikamgarh,24.996416796033188,78.9579506764351,Industrial,557.9,4.82,3.23,299,6032.54,78.66
F455C0E3,IN-TIK-B9D2,IND,Tikamgarh,24.755927398244115,78.86106986062504,Residential,165.11,5.12,1.55,1258,10324.69,84.67
29E4F783,IN-TIK-CF0D,IND,Tikamgarh,25.14093944777713,78.9955456639434,Industrial,273.21,1.8,6.84,524,3400.0,53.54
0459F26E,IN-TIK-6793,IND,Tikamgarh,24.78417643524385,78.80450067544973,Commercial,484.96,0.63,1.45,2068,11036.3,92.58
51B2A2BB,IN-TIK-AF25,IND,Tikamgarh,24.83901765091368,79.07320876134081,Agricultural,617.93,2.02,0.83,1159,14124.05,67.19
017E964C,IN-TIK-B0E1,IND,Tikamgarh,24.740366214161515,78.96197817037113,Commercial,406.78,4.04,8.44,729,2939.38,57.8
33B6B1D2,IN-TIK-4AB8,IND,Tikamgarh,24.958039805149,79.0528734597263,Residential,198.97,1.66,2.01,3159,9567.26,87.98
A86130BE,IN-TIK-BD94,IND,Tikamgarh,25.033595762335807,79.02023105977904,Agricultural,803.41,3.43,5.75,1598,4340.19,57.07
78FED723,IN-TIK-EE74,IND,Tikamgarh,25.149533139204582,79.03148792681706,Commercial,1217.58,3.84,1.71,610,9480.29,69.18
891FD546,IN-TIK-B32B,IND,Tikamgarh,24.765197621400326,78.9457912401347,Residential,180.74,8.83,2.29,1107,8044.4,88.61
FB05DF6B,IN-TIK-A63F,IND,Tikamgarh,24.98921641006215,79.01110920186414,Commercial,934.65,1.58,7.6,510,3112.32,50.93
1142683B,IN-TIK-A5D9,IND,Tikamgarh,24.830618350133513,79.23295882810203,Commercial,670.65,1.29,8.74,2331,3500.29,36.61
54002BDF,IN-GUN-A7A7,IND,Guna,24.443054643314067,77.00115058725656,Residential,370.39,9.04,12.03,924,2288.07,42.02
FAAD3C9B,IN-GUN-E770,IND,Guna,24.728980013879976,77.47677509881753,Residential,207.58,0.77,2.06,1171,8649.78,92.04
B34F74E9,IN-GUN-044E,IND,Guna,25.019016552079282,76.89520918242127,Residential,149.16,3.6,4.04,14156,10619.83,67.83
5F9BA8FB,IN-GUN-E76E,IND,Guna,24.330137175393535,77.33541836881449,Agricultural,689.43,0.74,1.31,1395,11393.13,82.62
595373DE,IN-GUN-2F4C,IND,Guna,24.833705143288125,77.43655135343892,Commercial,972.08,2.88,2.1,1805,8777.79,80.03
DFF14B61,IN-GUN-7B3B,IND,Guna,24.643239624752493,77.24671031602236,Agricultural,728.23,0.29,4.82,570,4524.04,62.65
773D4284,IN-GUN-09FE,IND,Guna,24.98390854905676,77.23098439004113,Commercial,835.67,6.37,4.66,550,4638.46,73.53
F355DDD1,IN-GUN-A19F,IND,Guna,24.919460759445645,77.26967071697034,Residential,676.98,1.28,7.05,3462,4490.48,53.85
5FEC737E,IN-GUN-C94C,IND,Guna,24.387801083179692,77.552283077223,Industrial,119.93,2.19,2.11,4323,9772.05,89.02
CC0E5CB5,IN-GUN-4CF1,IND,Guna,24.38234932316378,77.02030158135243,Residential,0.0,1.06,3.24,256,5998.32,72.77
3709807C,IN-GUN-7B9A,IND,Guna,24.875439339276255,77.2944108583531,Industrial,764.02,7.17,7.1,956,3468.44,45.54
E9E707B6,IN-GUN-E7FD,IND,Guna,24.673418975340486,77.1352088291638,Agricultural,713.49,2.5,1.64,681,9733.85,83.47
E2233724,IN-GUN-FA41,IND,Guna,24.935856282307807,77.05875849653995,Industrial,944.69,5.16,2.18,562,8095.11,84.2
65BCB0BE,IN-DEW-A2FD,IND,Dewas,23.191204538546405,76.39855051628989,Commercial,594.83,3.02,1.94,2225,9400.25,77.82
79878275,IN-DEW-CA66,IND,Dewas,22.703302053339875,76.4125648380045,Residential,311.4,13.09,3.33,130,5825.98,89.71
CCC53774,IN-DEW-CC37,IND,Dewas,22.405624815633157,76.77473635300538,Industrial,162.79,2.82,0.93,1494,13530.79,77.42
B7D09D58,IN-DEW-2637,IND,Dewas,23.09404186651588,76.27660804162069,Commercial,368.09,2.98,1.1,690,12203.07,68.09
EEC9655F,IN-DEW-B6FD,IND,Dewas,22.536907965785517,76.35132661937203,Agricultural,287.97,1.82,5.62,316,3904.93,72.38
89460C94,IN-DEW-64A1,IND,Dewas,22.49061179448044,76.72967275769535,Commercial,290.52,0.62,1.07,437,12230.89,71.3
1CB2E512,IN-MAN-A3FD,IND,Mandsaur,24.742619992660668,75.73095998361272,Agricultural,196.43,2.24,1.01,181,12494.43,97.83
FFFF3904,IN-MAN-A8DF,IND,Mandsaur,24.659817185551887,75.85195762503102,Commercial,768.66,8.7,4.48,535,4776.33,78.38
B2104FFC,IN-MAN-E16A,IND,Mandsaur,24.129073908602187,75.64812281449056,Industrial,0.0,8.63,7.35,570,3223.29,61.4
B7FCE0F1,IN-MAN-D097,IND,Mandsaur,24.48842128213699,75.90644049398779,Agricultural,962.13,6.28,3.59,312,5568.17,68.13
C4F8C4EE,IN-MAN-DB26,IND,Mandsaur,24.566065613562188,75.85423871581007,Residential,937.07,2.38,5.93,1152,4067.66,53.18
1AECA8A3,IN-MAN-98D0,IND,Mandsaur,24.011364343876462,75.05370433544876,Residential,33.83,7.83,7.76,1500,3454.23,40.83
D51D4FD9,IN-MAN-08B7,IND,Mandsaur,23.930479296818078,75.24060809185873,Industrial,667.05,10.16,2.39,238,7466.34,68.72
17899B51,IN-MAN-8B04,IND,Mandsaur,24.18542191060813,75.67933897082918,Commercial,467.56,5.56,5.42,1413,4457.64,56.61
2D4C4F38,IN-MAN-48F8,IND,Mandsaur,24.086357413222796,75.43393477880386,Industrial,32.66,3.67,8.42,386,2808.16,56.62
7929229E,IN-MAN-5655,IND,Mandsaur,24.204786166092955,74.99924922586298,Residential,111.51,1.1,1.38,1157,10972.17,70.29
3CEC0831,IN-MAN-877E,IND,Mandsaur,23.811457238832027,74.98954555254595,Industrial,656.11,0.36,3.24,637,6144.66,69.59
C086B59A,IN-MAN-978E,IND,Mandsaur,24.492227854979717,75.57365708189123,Agricultural,576.12,8.97,7.8,484,3035.43,32.54
E0956FBA,IN-MAN-1169,IND,Mandsaur,24.152811642418115,74.92559756819202,Industrial,793.93,6.62,4.01,304,5115.03,73.55
A56544F4,IN-MAN-D17D,IND,Mandsaur,24.56476786611707,75.71007033143003,Residential,654.21,7.75,3.12,189,6138.64,78.95
2B464EDD,IN-MAN-563D,IND,Mandsaur,23.9428726217592,74.99124307811044,Industrial,116.08,5.79,2.43,311,7415.44,75.95
C6D8A6E6,IN-MAN-A23E,IND,Mandsaur,24.089759052109763,75.01910675317033,Residential,257.08,0.94,3.7,279,5426.82,87.19
E8553258,IN-MAN-1424,IND,Mandsaur,24.259669624216897,75.10291195507894,Agricultural,536.88,3.45,3.89,151,5176.89,91.17
C9983833,IN-MAN-1A47,IND,Mandsaur,24.366706304575438,75.50702145845108,Agricultural,540.85,3.53,1.58,100,9714.38,91.8
6C15B78A,IN-MAN-2F12,IND,Mandsaur,23.896004387376546,75.40046998134197,Residential,0.0,1.59,10.93,460,2279.84,53.11
EC8A1E87,IN-KHA-FE28,IND,Khargone (West Nimar),21.639607117781484,75.47088501980423,Agricultural,284.0,4.62,5.53,167,3893.66,74.52
B35A92F9,IN-KHA-F844,IND,Khargone (West Nimar),21.5102567500715,75.52800031152566,Industrial,951.42,0.6,2.81,456,6746.83,70.15
4E2E95A4,IN-KHA-E41C,IND,Khargone (West Nimar),21.448788235664296,75.81389192079645,Industrial,547.32,1.55,1.24,495,11371.88,66.92
B7BE2C8E,IN-KHA-3167,IND,Khargone (West Nimar),22.4928887268245,76.09598011614634,Industrial,378.47,3.5,3.8,273,5312.59,68.83
E79B4C00,IN-KHA-5B51,IND,Khargone (West Nimar),21.897920835478605,75.46380531659285,Industrial,0.0,3.48,0.48,1119,17303.07,73.33
1FA823BC,IN-KHA-5B93,IND,Khargone (West Nimar),21.68846601946255,75.63546099788724,Industrial,462.42,5.02,1.83,494,9038.13,94.32
5D79591D,IN-KHA-9695,IND,Khargone (West Nimar),22.1351704485482,75.42282620843892,Commercial,451.01,5.93,1.22,185,11349.46,70.2
E2266B12,IN-KHA-0169,IND,Khargone (West Nimar),21.5832956168574,75.63781332312335,Industrial,585.92,9.47,2.72,3792,8244.02,92.33
7B9ABF0F,IN-KHA-CF3D,IND,Khargone (West Nimar),22.03168509408489,75.91801342268904,Industrial,930.29,1.42,0.86,100,13470.84,72.75
4E613B87,IN-KHA-4FD9,IND,Khargone (West Nimar),22.1578494297832,76.01715675354453,Agricultural,756.03,6.18,4.67,518,4616.21,76.87
5809D349,IN-KHA-F55B,IND,Khargone (West Nimar),22.12215236687503,75.35585370258744,Agricultural,923.71,0.32,3.86,145,5205.61,89.34
D9F43F5E,IN-KHA-DA61,IND,Khargone (West Nimar),21.688843855960418,76.13607764219323,Commercial,443.81,0.1,2.07,791,8468.65,84.38
AD2563B1,IN-KHA-E445,IND,Khargone (West Nimar),21.88242655879075,75.46987931736942,Agricultural,652.9,1.45,5.19,1500,4641.18,77.56
E9D436AD,IN-SHE-3BDC,IND,Sheopur,25.518590306014993,77.0631991396678,Agricultural,521.74,3.41,3.56,839,5820.93,82.88
11BA1864,IN-SHE-2F6A,IND,Sheopur,25.376196840877505,77.01112579922761,Agricultural,797.89,6.01,2.81,671,6834.37,88.66
F9BB5ADE,IN-SHE-62FB,IND,Sheopur,25.484108132023806,76.71967704285255,Commercial,834.65,5.83,2.06,100,8215.19,70.88
ABB0CEA7,IN-SHE-CB9C,IND,Sheopur,25.869549220850274,76.87429010374898,Commercial,363.83,2.69,3.11,1222,6571.7,80.86
864B8FA4,IN-SHE-508C,IND,Sheopur,25.41803304366379,76.83290141710661,Industrial,747.44,6.39,2.61,100,6960.87,80.29
AC16190F,IN-SHE-B40B,IND,Sheopur,25.516657206651594,76.67214304588039,Residential,0.0,4.55,0.33,1428,19310.64,92.9
2898A114,IN-SHE-D10A,IND,Sheopur,26.010254194458,77.40551169873801,Agricultural,671.6,4.82,3.33,100,5811.16,69.48
8A7E6452,IN-SHE-3F5F,IND,Sheopur,25.513602427201754,77.12271150130282,Commercial,55.66,14.9,0.4,588,18107.54,69.91
4A6D9B76,IN-SHE-1089,IND,Sheopur,25.86560472777958,77.19810766999706,Residential,191.9,14.8,4.74,1607,5001.64,61.84
9957A89A,IN-SHE-FC0F,IND,Sheopur,25.57175572719023,76.56243942817713,Agricultural,373.08,5.76,1.56,749,10052.8,97.26
73FD4AF7,IN-SHE-9744,IND,Sheopur,25.9647146125921,77.07420724504327,Residential,228.44,6.73,9.42,2107,3241.65,35.53
A8245FC7,IN-MOR-7680,IND,Morena,26.46928300195468,77.85863504411381,Residential,486.72,8.46,3.84,3640,6621.51,71.41
E7DF579C,IN-MOR-FFC0,IND,Morena,26.43645594947322,77.7901431797947,Industrial,235.95,6.82,5.75,1307,4225.72,54.76
86F350CD,IN-MOR-C95E,IND,Morena,26.69512962871287,78.44506382918436,Residential,248.31,3.54,3.97,367,5182.16,74.72
A222AE00,IN-MOR-8E6C,IND,Morena,26.095434551930165,77.57764212491969,Commercial,113.44,7.85,2.17,364,8034.23,88.61
FDD8759A,IN-MOR-C445,IND,Morena,26.366475144791085,77.4911108421162,Industrial,516.5,2.86,6.42,1281,3879.78,50.55
44A8F379,IN-MOR-B549,IND,Morena,26.365255885687116,78.1814322700947,Agricultural,524.95,2.77,6.2,656,3734.25,73.27
1D69A3BF,IN-MOR-9A26,IND,Morena,26.712221328754072,78.38945380895181,Residential,282.83,5.34,5.61,161,3847.95,65.74
998E38B7,IN-MOR-6A12,IND,Morena,26.55627237622789,77.86794795965612,Commercial,479.81,0.05,3.12,1205,6543.38,86.48
B33D1237,IN-MOR-A4BC,IND,Morena,26.24890484965213,77.43007180538596,Industrial,103.53,5.4,0.36,679,18683.98,92.17
E9F26348,IN-MOR-7E14,IND,Morena,26.58966646420322,78.35591091437692,Agricultural,470.98,7.96,0.31,954,19524.22,79.49
0AF2A3D0,IN-MOR-2DC9,IND,Morena,26.07259829769328,77.6935507528646,Industrial,404.66,2.14,2.73,1922,7474.77,74.94
338834F5,IN-MOR-4CFE,IND,Morena,26.14296365939123,77.62494731434998,Agricultural,421.42,7.85,3.78,510,5438.81,93.35
F7DC2842,IN-MOR-4EBC,IND,Morena,26.315492898485196,77.47596309354994,Industrial,710.76,5.09,2.47,113,7247.97,82.1
C667105D,IN-BHI-0617,IND,Bhind,26.487193446460108,78.26969248377063,Commercial,594.01,2.54,0.37,100,18303.43,85.43
7A0C92F4,IN-BHI-7224,IND,Bhind,26.17767015362594,78.83256153999983,Commercial,1125.62,4.36,6.12,1488,4104.63,66.16
E5279378,IN-BHI-4F2D,IND,Bhind,26.614757872266022,78.48447106430135,Industrial,697.95,0.6,8.86,765,2840.95,52.81
893EF475,IN-BHI-1B3B,IND,Bhind,26.216528387340727,78.94112112429596,Agricultural,161.82,0.28,4.2,878,5158.25,85.16
D098CD35,IN-BHI-03CA,IND,Bhind,26.401835545232885,78.49052313456893,Agricultural,433.58,5.14,2.92,3225,7662.19,79.51
99FA2175,IN-BHI-AA83,IND,Bhind,26.78796241787524,78.68872974215859,Commercial,408.95,3.83,6.65,421,3434.82,65.99
D2C597FE,IN-BHI-46AA,IND,Bhind,25.956676758503434,78.81951709084146,Commercial,583.01,5.82,3.42,448,5838.82,80.64
94C53F9D,IN-BHI-ED53,IND,Bhind,26.345419342403208,78.70134495692766,Residential,154.07,1.64,1.01,2127,13288.12,92.35
EF5B9932,IN-BHI-3261,IND,Bhind,26.44481583061133,78.60319805193537,Agricultural,157.02,0.73,4.84,3093,5515.99,76.63
ED7E0006,IN-BHI-A88F,IND,Bhind,26.637891530665463,78.94166335462718,Agricultural,699.78,8.03,0.72,100,14607.02,84.96
0C28846C,IN-BHI-3ECE,IND,Bhind,26.645484484531522,78.88556044337996,Commercial,941.3,3.85,1.36,1485,11189.42,80.57
895778EA,IN-BHI-D3CE,IND,Bhind,26.471099631031176,78.85601364160094,Residential,453.06,7.56,4.99,1198,4650.01,76.96
246BD2C4,IN-BHI-1B55,IND,Bhind,26.102191523234893,78.87881159414879,Agricultural,789.55,5.02,11.94,100,1971.61,52.77
AA566135,IN-BHI-1A5E,IND,Bhind,26.389866642986952,79.06281490688855,Industrial,559.85,7.3,10.31,2466,3197.53,39.24
8056059A,IN-BHI-79AB,IND,Bhind,26.168213116199016,79.0020095749822,Commercial,340.01,0.74,11.85,519,2153.2,52.46
5B8E2499,IN-BHI-B524,IND,Bhind,26.350953712212085,78.76923850109127,Agricultural,410.66,0.22,3.61,2199,6308.34,67.23
AF4965F3,IN-JHA-8D4E,IND,Jhabua,22.889415719009328,74.92965625181316,Agricultural,0.0,2.98,5.37,1549,4542.14,71.2
84490B4B,IN-JHA-422E,IND,Jhabua,22.789445508254946,74.88461520061125,Industrial,428.32,1.55,0.63,1122,15798.91,70.45
6C3F45D6,IN-JHA-F885,IND,Jhabua,22.700721695929815,74.51760161702525,Industrial,640.16,3.05,6.56,688,3581.99,46.83
5FFD3B15,IN-JHA-0684,IND,Jhabua,22.80641352282514,74.68426054925273,Industrial,0.0,3.89,2.43,2386,8235.39,87.65
818AC8E1,IN-JHA-06E5,IND,Jhabua,23.028950844641077,74.72368501924815,Industrial,621.74,1.92,4.31,596,4945.58,74.67
1B66503B,IN-JHA-B379,IND,Jhabua,23.231129686887996,74.76340085859296,Residential,1069.07,2.42,3.66,507,5563.05,75.65
C27A32B6,IN-JHA-570B,IND,Jhabua,22.82452440353666,74.61751649974352,Agricultural,965.8,1.0,3.68,509,5546.12,69.37
922C565C,IN-JHA-1C36,IND,Jhabua,22.876658127733855,74.78411041102862,Industrial,392.31,1.01,4.21,741,5092.39,85.99
B5ECDD15,IN-JHA-E221,IND,Jhabua,22.835486862094175,74.682072934748,Residential,1106.47,3.62,6.72,6382,5790.59,63.12
3322599B,IN-JHA-3421,IND,Jhabua,22.605702539885097,74.53587684137348,Commercial,372.1,2.25,12.15,593,2138.09,45.4
38639268,IN-JHA-6806,IND,Jhabua,22.782066387325266,74.52533936439079,Commercial,550.19,9.6,4.44,983,4989.54,67.81
FA53E1FB,IN-JHA-6376,IND,Jhabua,23.035191852811874,74.97780015614059,Commercial,946.88,1.07,4.11,100,4929.05,87.22
125146DA,IN-SEO-F6E7,IND,Seoni,22.403146674782842,79.78089974961244,Agricultural,1169.51,1.98,6.7,422,3417.26,57.35
9AE67664,IN-SEO-F19C,IND,Seoni,22.163483960440285,79.88921764126815,Residential,780.76,3.6,6.51,4923,5298.55,66.63
9FF41267,IN-SEO-1DE8,IND,Seoni,22.659796265397425,80.10934399893526,Residential,597.5,2.18,0.13,833,22373.6,83.79
5E219895,IN-SEO-3AD5,IND,Seoni,22.455388374750164,79.39953837067824,Residential,303.01,2.17,2.97,100,6340.93,73.75
53FD4616,IN-SEO-0102,IND,Seoni,22.48503600913884,79.53634414013936,Agricultural,864.11,7.73,5.01,276,4270.86,80.97
6FF5A316,IN-SEO-C49B,IND,Seoni,22.025173241896965,79.42700777967029,Commercial,712.26,7.18,2.93,306,6477.33,66.9
FE3920FE,IN-SEO-EC6B,IND,Seoni,22.35003189536536,79.45940060467844,Agricultural,716.48,2.29,1.71,1026,9648.57,68.18
DF0286C8,IN-SEO-08F7,IND,Seoni,21.890034619406247,79.56163252564839,Commercial,488.26,5.45,11.43,2164,2877.29,31.42
E4CEEB56,IN-SEO-7A29,IND,Seoni,21.969017270655083,79.74000528906922,Residential,35.35,1.28,2.6,100,6978.2,69.76
6B44B7A7,IN-SEO-F226,IND,Seoni,22.06635277395139,79.78196716474778,Agricultural,711.16,3.58,0.95,2283,13743.39,76.19
3A3D65AC,IN-SEO-EBF1,IND,Seoni,22.438367851355306,80.03987916310577,Industrial,276.12,5.0,5.96,372,3739.28,50.05
87DDD30D,IN-KHA-D0BA,IND,Khandwa (East Nimar),21.763977536730025,76.37314414978718,Industrial,717.35,3.1,18.17,734,1597.85,44.59
91B11B1B,IN-KHA-6973,IND,Khandwa (East Nimar),21.772092296490158,76.19137952787221,Agricultural,391.91,4.08,3.41,170,5732.99,87.29
F44C1D61,IN-KHA-EF9A,IND,Khandwa (East Nimar),21.98088561461981,76.38924491734457,Agricultural,319.61,2.26,2.38,217,7487.69,77.47
C6ABD764,IN-KHA-C86A,IND,Khandwa (East Nimar),21.854568624833064,76.81692730711055,Residential,1026.68,0.86,4.65,10549,8646.32,66.72
028E8EA1,IN-KHA-FE97,IND,Khandwa (East Nimar),21.814250988387144,76.88431185400752,Commercial,759.22,1.35,7.99,1780,3491.66,44.11
E6C71439,IN-KHA-9790,IND,Khandwa (East Nimar),21.998205571237158,76.36570428148329,Industrial,607.59,5.83,2.54,126,7114.18,78.37
5A5C431C,IN-KHA-9934,IND,Khandwa (East Nimar),22.35864900116914,76.51999349799279,Commercial,949.54,1.04,1.69,709,9582.92,84.63
8BFACBFE,IN-KHA-98F3,IND,Khandwa (East Nimar),22.24862965597698,76.7531772343328,Agricultural,185.71,11.61,7.95,362,2939.28,63.84
297C7C94,IN-KHA-130D,IND,Khandwa (East Nimar),21.711369602868114,76.5032461345202,Industrial,619.11,4.23,5.04,456,4321.27,64.07
B9D166EA,IN-UMA-0439,IND,Umaria,23.648799255262944,81.11559933629444,Agricultural,274.03,1.17,4.02,3722,6472.72,78.17
72F92F92,IN-UMA-A2A7,IND,Umaria,23.347288582064728,81.01645884409436,Commercial,0.0,1.63,4.84,183,4351.87,69.34
DF2198EE,IN-UMA-B256,IND,Umaria,23.35543333890554,81.14021370147212,Industrial,322.21,1.25,3.68,752,5647.32,67.81
24C8C2A8,IN-UMA-C38B,IND,Umaria,23.23018188861137,81.11886441501387,Industrial,482.61,1.01,1.71,100,9265.2,66.81
2C600C41,IN-UMA-9E90,IND,Umaria,23.40666395023083,81.20163196634016,Industrial,114.84,3.4,4.86,734,4558.44,84.29
50CD3665,IN-UMA-1FEB,IND,Umaria,23.585501720114994,81.0407994286578,Industrial,224.11,5.28,5.12,209,4171.4,77.85
9E8FC336,IN-UMA-CEBD,IND,Umaria,23.96482166817604,81.05529546387955,Agricultural,429.43,7.5,2.74,275,6800.78,77.35
70EAD663,IN-UMA-E2FB,IND,Umaria,23.694812290502654,80.93939006296888,Agricultural,490.39,4.83,2.0,2439,9305.72,90.12
2C5BD39B,IN-UMA-43DB,IND,Umaria,23.74046649699027,81.1236604249958,Commercial,680.15,3.03,2.54,530,7277.45,76.11
3F6CEA70,IN-UMA-1780,IND,Umaria,23.248681673793037,80.8116744898463,Agricultural,751.36,0.48,4.38,4462,6434.05,66.66
3CB23033,IN-UMA-ED25,IND,Umaria,23.835412756740592,81.01159653995434,Industrial,790.12,2.49,6.62,1810,4007.2,59.99
68902E04,IN-GWA-CBE5,IND,Gwalior,25.773619469994166,77.94529187789367,Commercial,536.55,0.92,10.07,1359,2802.43,32.84
7A42C314,IN-GWA-72C1,IND,Gwalior,25.891994227172404,77.78013286457235,Industrial,539.32,2.16,1.91,278,8704.09,84.82
14E0D4E0,IN-GWA-3575,IND,Gwalior,26.21983242915653,78.27448112424065,Commercial,90.61,11.89,3.0,1389,6807.75,82.28
04B77C62,IN-GWA-CFEA,IND,Gwalior,26.104460987408878,78.55523464983693,Commercial,84.33,6.67,1.54,267,9949.37,97.04
07F72C70,IN-GWA-23F9,IND,Gwalior,25.938062540420063,77.76780734638906,Residential,378.99,10.13,6.7,249,3344.39,59.03
F9769CE1,IN-GWA-52D5,IND,Gwalior,25.733648193280985,78.16335555310006,Commercial,218.6,7.09,1.87,100,8753.2,82.16
1F6D6D9D,IN-GWA-B0A3,IND,Gwalior,25.820405061305102,78.01279550402187,Industrial,894.77,0.06,8.37,226,2759.67,51.65
D984966E,IN-GWA-9EF4,IND,Gwalior,26.002562187656093,78.30686999464338,Industrial,648.98,5.91,0.75,528,14500.47,90.64
679895F3,IN-GWA-E104,IND,Gwalior,25.9791893910461,78.1574134909358,Commercial,435.92,0.7,1.56,373,9926.53,88.31
9BDBDFA9,IN-DAM-AA1A,IND,Damoh,23.584825361758966,79.43772107579353,Industrial,759.86,1.18,4.72,1072,4802.19,84.85
2BD7FD81,IN-DAM-3359,IND,Damoh,23.23691193559868,79.45249552803158,Commercial,397.85,1.18,3.22,100,5962.77,68.08
B9BFF2AD,IN-DAM-62B2,IND,Damoh,23.73733758848869,79.53664573391247,Industrial,508.73,1.72,1.03,100,12335.48,71.53
84A8C3B2,IN-DAM-3123,IND,Damoh,24.00247975355702,79.77746828732299,Agricultural,280.44,3.24,1.66,735,9692.7,95.33
2B06A7D3,IN-DAM-F412,IND,Damoh,23.439092701640035,79.47579695231876,Agricultural,582.45,1.71,2.97,1792,7015.62,73.83
61C375A8,IN-DAM-46B0,IND,Damoh,24.168382868813616,79.54534103820804,Industrial,209.28,9.26,5.53,420,3996.38,72.84
0C36C579,IN-DAM-798D,IND,Damoh,23.782920195023692,79.27096665165016,Agricultural,0.0,13.02,0.55,1027,16545.18,79.7
96BC5471,IN-DAM-FA17,IND,Damoh,24.22002625414074,79.39347396686773,Commercial,502.32,1.09,2.32,2771,8647.19,79.88
81F49D3D,IN-DAM-F097,IND,Damoh,23.671571775229424,79.4960791310014,Residential,335.63,2.79,0.74,467,14556.09,79.58
D502C3A8,IN-DAM-7145,IND,Damoh,23.362072785936522,79.32979040976493,Residential,844.74,3.8,2.75,264,6779.68,75.47
ECBF2566,IN-DAM-F79D,IND,Damoh,23.75793061237944,79.31878072151297,Commercial,324.65,3.12,2.01,885,8647.95,72.5
24F765FD,IN-DAM-20BB,IND,Damoh,23.649363791993974,79.9189772286675,Industrial,487.62,6.65,3.32,860,6127.5,83.93
C16B0DED,IN-DAM-9BF6,IND,Damoh,24.187836529371282,79.58538866615558,Agricultural,426.17,0.98,1.21,325,11446.62,90.22
DFF91897,IN-DAM-1C15,IND,Damoh,23.450591241790107,79.45812724520879,Commercial,405.1,2.5,10.46,1208,2664.43,31.95
8310A527,IN-DHA-7933,IND,Dhar,22.318511744374387,75.04226914413822,Industrial,769.34,2.8,1.63,1586,10122.97,77.52
FEE018E8,IN-DHA-1F09,IND,Dhar,22.496872415257148,75.51569682514973,Agricultural,931.45,7.73,2.91,2854,7537.96,63.91
9930CA0B,IN-DHA-CFE2,IND,Dhar,22.58755992172164,75.37642850902132,Agricultural,471.53,6.22,1.97,2912,9576.29,81.53
0D580CC9,IN-DHA-6C7E,IND,Dhar,22.45991877172144,75.24647087356429,Industrial,503.71,13.55,2.52,1178,7573.07,93.8
9F37F85D,IN-DHA-97FE,IND,Dhar,22.493116494146932,75.42812803663207,Industrial,380.67,9.5,1.6,463,9794.39,90.92
1390B80E,IN-DHA-6BBA,IND,Dhar,22.59603764522073,75.04213598430658,Commercial,917.58,5.01,5.6,731,4083.45,49.45
70020AC0,IN-DHA-13E3,IND,Dhar,22.76589498549832,74.90760957417264,Residential,355.6,8.93,2.75,675,6928.81,85.46
C6AA7192,IN-DHA-76F3,IND,Dhar,23.055998940006177,75.2718901676626,Commercial,840.2,7.34,5.88,643,3893.06,63.44
916CBF17,IN-DHA-FA57,IND,Dhar,22.108610223229483,74.78133973760298,Industrial,125.1,4.19,0.62,231,15519.87,98.93
380D0354,IN-DHA-1C12,IND,Dhar,22.75114556447084,75.3754165059786,Commercial,633.24,1.71,2.64,921,7240.19,77.12
0BF052C6,IN-DHA-7F7B,IND,Dhar,22.41546158259106,75.3835316523654,Commercial,786.97,8.57,4.91,829,4560.39,81.09
7670C182,IN-KAT-BCE4,IND,Katni,23.361077329647628,80.36179536303837,Residential,338.61,0.29,4.15,521,5064.26,74.88
8D5425CF,IN-KAT-B3D3,IND,Katni,23.57245668204091,80.45129381881003,Commercial,667.99,1.17,2.83,1496,7118.55,65.29
265E5069,IN-KAT-240B,IND,Katni,23.873333654751168,80.72884256092946,Commercial,418.92,5.0,5.28,7427,6951.47,62.3
07CC7BDD,IN-KAT-350A,IND,Katni,23.51517361552251,80.40188149143901,Industrial,650.0,2.07,2.96,100,6345.48,82.41
063A96F1,IN-KAT-5CCE,IND,Katni,23.795073116344913,80.05480349736564,Commercial,1193.38,3.25,5.3,464,4156.17,68.19
42C52EE2,IN-KAT-822E,IND,Katni,23.89642074907866,80.23839914300214,Agricultural,682.18,0.75,1.32,261,10903.05,73.63
28182DE2,IN-KAT-C0CA,IND,Katni,23.64815788299607,80.44481226124245,Commercial,75.12,3.21,4.95,401,4364.82,80.9
3EFD80C6,IN-KAT-6C1C,IND,Katni,23.600283248240586,80.45718700609052,Commercial,701.04,3.56,1.34,2904,11864.85,68.71
5F21BB99,IN-KAT-CA29,IND,Katni,24.038663444840246,80.57889007576509,Industrial,473.33,3.44,1.7,620,9491.81,78.4
6D01240B,IN-KAT-3052,IND,Katni,23.893405696020725,80.15210912647457,Industrial,563.78,5.02,0.91,304,13223.47,92.48
B21C6045,IN-KAT-CFFF,IND,Katni,23.90387576740101,80.63035213691741,Commercial,141.74,5.06,11.13,100,2100.46,43.94
5EB80317,IN-SID-111F,IND,Sidhi,24.37736141119854,81.46817583583132,Industrial,817.58,3.7,2.11,709,8330.09,68.52
B302D8DE,IN-SID-C198,IND,Sidhi,24.00651198651419,81.773312985364,Residential,959.4,1.69,7.1,153,3149.06,35.02
B8EA4EE9,IN-SID-7D52,IND,Sidhi,24.405293783003906,82.03970066954129,Commercial,403.55,9.37,5.12,191,4164.23,69.31
5FD288E5,IN-SID-E183,IND,Sidhi,24.559744147980126,82.10771778699021,Residential,0.0,1.44,3.43,135,5696.5,80.74
7D27480C,IN-SID-A87A,IND,Sidhi,24.373586070489942,82.12024110315336,Residential,606.74,2.76,4.62,503,4650.82,66.55
FABAE93E,IN-SID-75E0,IND,Sidhi,24.309680084143597,81.34609299250548,Industrial,300.69,0.43,1.94,710,8789.71,77.96
66751D7A,IN-SID-D9C3,IND,Sidhi,24.257535584809755,81.75357707625166,Agricultural,362.95,7.27,4.24,691,5045.31,84.66
EE48EFE7,IN-SID-BA52,IND,Sidhi,24.41061904233841,81.9519586000781,Commercial,332.25,2.3,2.98,2065,7111.1,95.11
9FF7F0CC,IN-SID-0CB8,IND,Sidhi,23.96766417510628,81.92576273897696,Residential,229.71,5.35,2.45,867,7603.29,86.04
D1E73D6F,IN-SID-53B7,IND,Sidhi,24.21253355915955,81.59829733584162,Residential,197.01,0.43,7.78,100,2888.56,53.6
48C83A91,IN-SID-9177,IND,Sidhi,24.58080377507527,82.30369104859169,Commercial,27.7,0.32,13.84,506,1886.87,35.0
DD0EFD2C,IN-ALI-977D,IND,Alirajpur,22.36638011865394,74.10569175681455,Industrial,1176.21,0.31,3.12,717,6352.72,66.44
67EDBAF7,IN-ALI-B008,IND,Alirajpur,22.46865870210147,74.09968886161552,Agricultural,375.13,0.4,3.38,260,5813.76,86.56
2BFAAAB2,IN-ALI-3101,IND,Alirajpur,22.442851831986545,74.67404536665268,Agricultural,689.69,6.47,1.8,729,9218.01,90.8
EF937758,IN-ALI-382F,IND,Alirajpur,22.516909878522625,74.08437038360603,Industrial,475.91,6.63,4.83,1674,4954.47,76.52
A191E8FC,IN-ALI-4254,IND,Alirajpur,22.53543032816182,74.3872973475475,Industrial,202.54,2.74,3.83,2696,6256.18,69.68
A506DB42,IN-ALI-24ED,IND,Alirajpur,22.41636117417292,74.46496748094715,Agricultural,808.25,2.45,1.3,456,11048.41,65.34
D1468EDD,IN-ALI-0030,IND,Alirajpur,22.25646299541293,74.48170211178342,Agricultural,619.78,3.09,10.53,277,2278.72,38.19
B53E74E4,IN-ALI-772B,IND,Alirajpur,22.323673128726035,74.44075398921787,Industrial,819.87,4.82,10.29,100,2254.2,33.86
9D2D1947,IN-ALI-881F,IND,Alirajpur,22.487092110998567,74.48240658986325,Residential,570.54,5.71,0.81,249,13932.08,70.25
30CDA462,IN-ALI-BAEE,IND,Alirajpur,22.299022327477026,74.59706987580037,Agricultural,575.7,1.0,2.39,1136,7819.73,66.7
9A9BB4E5,IN-ALI-9784,IND,Alirajpur,21.96252512257805,74.23382525973717,Residential,455.79,0.21,5.35,12092,8776.57,59.98
93D54744,IN-ALI-5CD2,IND,Alirajpur,22.09149781189753,74.19697515495606,Agricultural,175.36,1.95,1.47,824,10453.11,69.78
0343C54C,IN-ALI-3678,IND,Alirajpur,22.5261426980428,74.68178555361804,Commercial,296.31,10.84,0.18,244,21197.6,91.48
D591C474,IN-ALI-A6C2,IND,Alirajpur,22.36891958128009,74.43092326266648,Industrial,1045.01,2.87,3.26,748,6161.46,72.11
CE858CD8,IN-ALI-537F,IND,Alirajpur,22.206904493977067,74.37380514194663,Commercial,55.47,4.44,0.42,557,17793.36,89.55
FC2CFF2B,IN-ALI-CEED,IND,Alirajpur,22.172902013281046,74.33350871793596,Industrial,354.67,9.31,3.8,1960,5991.61,93.23
90B38F86,IN-ALI-239F,IND,Alirajpur,22.254521568640435,74.39098641040191,Commercial,765.58,1.01,2.54,805,7375.97,66.51
26B54E7D,IN-ALI-C9E2,IND,Alirajpur,22.025180513711305,74.40594199685486,Agricultural,1045.98,3.01,1.31,563,11038.21,77.7
EA7319C2,IN-ALI-1E9B,IND,Alirajpur,22.099170020804483,74.40179686240128,Commercial,206.2,8.09,5.59,973,4183.56,65.49
CD9D6FE4,IN-ALI-02C9,IND,Alirajpur,21.970980580830812,74.16467870900935,Commercial,0.0,7.88,4.68,2552,5419.02,82.36
F60597E4,IN-ALI-B721,IND,Alirajpur,22.44939325486453,74.48364782578344,Commercial,336.71,9.06,4.69,220,4480.84,71.55
DAB0BF44,IN-ALI-5C2F,IND,Alirajpur,22.263810944074887,74.52163242002422,Agricultural,448.68,1.65,7.79,1092,3282.13,48.68
8A73F8C4,IN-ALI-FCC4,IND,Alirajpur,22.195566660774112,74.31147914516825,Commercial,372.68,3.77,16.15,587,1692.57,47.35
E25EF69B,IN-SIN-812E,IND,Singrauli,23.925132933854012,82.58556235187343,Agricultural,993.47,2.74,1.11,727,12125.11,68.36
343DB142,IN-SIN-8669,IND,Singrauli,24.33189881238713,82.55852241337699,Agricultural,692.46,1.5,5.21,567,4249.83,69.94
F7E14FFA,IN-SIN-D525,IND,Singrauli,24.08470069865273,82.21086722647068,Residential,389.76,8.74,1.26,906,11436.68,85.35
199FCBFC,IN-SIN-B4E8,IND,Singrauli,24.0992121992781,82.27390705102206,Commercial,297.33,4.61,7.05,392,3260.9,49.84
5170029B,IN-SIN-4D02,IND,Singrauli,23.94921874050952,82.37754930051156,Industrial,290.31,7.33,2.55,194,7129.05,87.84
26E99E6E,IN-SIN-F97C,IND,Singrauli,23.82986954816448,82.45326882057601,Industrial,774.22,4.94,2.82,3934,8119.33,65.21
51C3CF4B,IN-SIN-21C3,IND,Singrauli,24.18029374647032,82.47767494923242,Commercial,31.12,3.63,1.41,452,10549.63,83.19
803EAAB5,IN-SIN-1F2F,IND,Singrauli,23.912281412207754,82.63970248018363,Commercial,454.92,0.2,5.75,1462,4290.25,50.4
31B78E43,IN-SIN-EBA2,IND,Singrauli,24.30403980248754,82.13954096874687,Commercial,1075.89,0.99,22.06,6065,3510.64,47.72
0345614F,IN-SIN-B80D,IND,Singrauli,24.237917686690885,82.07790314266111,Residential,344.41,8.59,1.3,540,11087.81,96.33
84DEEA63,IN-SIN-3D42,IND,Singrauli,24.213475549105958,82.62430779645024,Industrial,246.97,4.22,3.12,281,6187.31,91.86
219E8165,IN-SIN-2D07,IND,Singrauli,24.55982509499558,82.75974210560848,Agricultural,551.42,2.94,2.94,191,6425.93,88.81
4FC8D88B,IN-SIN-CB28,IND,Singrauli,24.148631200446477,82.16233141516366,Commercial,196.56,5.44,1.67,4205,11036.99,77.24
9BDB6B82,IN-SIN-CB5D,IND,Singrauli,24.356477419552515,82.24990305907369,Industrial,240.71,5.68,3.5,469,5740.66,91.97
F2E05894,IN-SIN-3420,IND,Singrauli,24.148116250034768,82.42968499924774,Industrial,482.39,0.51,8.29,401,2851.46,44.06
38B5D427,IN-BHO-570B,IND,Bhopal,23.476577012266567,77.48026468758775,Agricultural,736.38,2.31,4.55,1511,5105.94,65.5
C213E885,IN-BHO-064D,IND,Bhopal,23.517775109738963,77.46738782962531,Residential,89.49,0.89,3.05,294,6297.57,96.78
5A314981,IN-BHO-E64A,IND,Bhopal,23.650842292856055,77.52509807615306,Industrial,544.63,0.86,1.52,732,10206.59,66.58
C041A247,IN-BHO-611A,IND,Bhopal,23.628600671382113,77.4258189311587,Residential,127.84,0.42,3.29,201,5905.12,70.92
97042463,IN-BHO-4FCF,IND,Bhopal,23.698815442100084,77.36718677730748,Residential,120.14,8.77,1.82,1304,9389.05,78.72
155340DD,IN-BHO-D50C,IND,Bhopal,23.12846011836033,77.4491719457541,Industrial,383.47,0.79,2.37,140,7485.11,86.51
8EC00FFE,IN-BHO-7D5F,IND,Bhopal,23.694330292968544,77.52925066455944,Residential,102.91,2.18,4.2,1746,5502.55,72.88
B5FA6E5F,IN-BHO-CC82,IND,Bhopal,23.4220415510777,77.45607830379839,Agricultural,409.02,2.43,4.33,786,5008.15,76.57
95232E42,IN-BHO-C2A5,IND,Bhopal,23.144348692300458,77.32752942858347,Agricultural,360.97,5.33,5.47,1652,4526.35,53.75
777CAF7A,IN-BHO-B833,IND,Bhopal,23.46416596664153,77.43956316822448,Agricultural,825.42,4.98,0.76,652,14473.97,81.49
F1263603,IN-BHO-2341,IND,Bhopal,23.701310549408877,77.52420804364533,Industrial,323.22,6.27,1.86,1028,9157.49,95.4
BDC51630,IN-BHO-1974,IND,Bhopal,23.201088526148894,77.31104874858461,Industrial,310.32,2.52,3.04,387,6343.31,94.52
73108A0C,IN-BHO-EAA2,IND,Bhopal,23.40069814298369,77.37811212381438,Residential,632.99,0.91,0.11,955,22983.17,80.99
5A4E58FF,IN-BHO-801F,IND,Bhopal,23.55001518878533,77.44587182377222,Commercial,550.68,6.58,4.21,1885,5555.49,75.1
42AD5DB1,IN-BHO-F84F,IND,Bhopal,23.77619061341296,77.21849466040466,Agricultural,456.06,5.03,1.47,207,10208.99,74.61
8BEA1CBC,IN-BHO-0493,IND,Bhopal,23.869165272492644,77.31745292663679,Industrial,187.16,11.8,4.05,1730,5639.82,69.33
EBA9CF3B,IN-RAJ-508B,IND,Rajgarh,23.962124375139346,77.09910329992321,Industrial,580.9,0.65,1.46,1566,10778.28,68.94
4ADF5F57,IN-RAJ-254D,IND,Rajgarh,24.243163364474075,76.68533224422615,Industrial,362.85,0.92,5.46,4508,5674.93,72.14
6775A5F0,IN-RAJ-F3F6,IND,Rajgarh,24.059181947064378,76.44835906121833,Residential,385.66,7.95,6.59,2758,4396.0,56.39
4D7DA03B,IN-RAJ-0135,IND,Rajgarh,23.700803608374148,76.6475135510167,Industrial,616.2,7.86,2.23,128,7789.63,72.27
8CBEEB0F,IN-RAJ-3A8C,IND,Rajgarh,23.513566717629516,76.6645862885483,Agricultural,456.77,5.42,8.56,634,2870.05,39.78
32E7CDD4,IN-RAJ-3BD6,IND,Rajgarh,23.65574145478385,77.01995114493835,Commercial,792.56,4.15,2.66,338,6956.83,65.31
D2A85AD0,IN-RAJ-0B59,IND,Rajgarh,23.51120532358821,76.94398376459908,Industrial,203.74,3.71,3.33,1198,6255.07,69.72
38C2F5F3,IN-RAJ-D488,IND,Rajgarh,23.849544590633723,77.19533909769217,Industrial,968.86,0.12,7.53,1760,3634.72,53.77
4E4DF752,IN-RAJ-FC28,IND,Rajgarh,23.760998902205195,76.94604187042185,Commercial,755.65,0.02,1.08,2075,12841.79,84.15
1D233F7D,IN-RAJ-63D7,IND,Rajgarh,23.82078275123364,76.38306192708454,Industrial,0.0,1.91,6.48,3345,4678.98,50.46
56E4CA45,IN-RAJ-1CBC,IND,Rajgarh,23.89926903354997,76.84140013729609,Commercial,0.0,5.28,1.55,465,9990.36,81.86
4A1C838E,IN-RAJ-6815,IND,Rajgarh,23.550721585468324,76.87843459515288,Residential,537.38,2.93,3.91,377,5241.63,73.54
DD836906,IN-MAN-063A,IND,Mandla,23.008098162054075,80.09567295547058,Industrial,877.75,9.03,3.84,1121,5614.92,68.03
F4F91CE9,IN-MAN-91BF,IND,Mandla,22.759883434195746,80.80486726067481,Residential,642.02,0.49,2.72,580,6951.67,76.32
0D0757ED,IN-MAN-3CBD,IND,Mandla,22.2533760675343,80.54952563396138,Commercial,1080.76,0.68,1.66,598,9653.44,84.95
4B16580C,IN-MAN-1BDD,IND,Mandla,22.324541514926445,81.10539428299859,Agricultural,661.69,4.59,2.85,618,6744.91,68.98
A97D94D1,IN-MAN-7887,IND,Mandla,22.6908996658014,80.79502113035257,Industrial,377.68,1.56,7.6,785,3220.91,50.59
609FB786,IN-MAN-3744,IND,Mandla,22.31779515001985,80.22958905836988,Industrial,0.0,0.25,0.39,1075,18357.91,95.12
8526D7AD,IN-MAN-F75F,IND,Mandla,22.447598421160002,80.39185021380266,Commercial,565.62,0.83,1.35,656,10885.79,85.52
DF52BEDB,IN-MAN-6A78,IND,Mandla,22.660841902976976,80.73880312503178,Residential,496.75,1.4,1.39,244,10548.83,79.23
EE2C668D,IN-MAN-5C38,IND,Mandla,22.482665708397754,81.00159390758043,Residential,130.99,2.71,2.85,449,6677.06,69.26
91CA86CE,IN-MAN-65FB,IND,Mandla,23.02954200873384,80.10874805807086,Residential,481.45,5.75,8.73,752,2870.66,39.75
D8EB5E90,IN-MAN-4E4F,IND,Mandla,22.251834365215437,81.08510676475876,Commercial,652.79,3.08,3.22,3939,7492.89,88.67
DFD6604A,IN-MAN-C165,IND,Mandla,22.56355935941171,80.55788480194838,Commercial,937.91,3.14,1.71,192,9289.9,81.14
FCC16B54,IN-MAN-F203,IND,Mandla,22.73995454469657,80.29192030214867,Agricultural,367.0,6.19,2.37,2479,8420.83,93.58
A1653332,IN-MAN-B386,IND,Mandla,22.529183609159492,81.0992392559806,Industrial,846.26,5.17,6.0,1669,4238.5,71.27
86A5E69C,IN-MAN-9544,IND,Mandla,22.930776599425187,79.99997694187269,Industrial,205.39,3.43,1.67,1015,9780.99,70.36
035A9B11,IN-MAN-0B70,IND,Mandla,22.557405208782065,80.58700982919797,Residential,606.31,5.98,5.85,1152,4110.84,68.82
713C2E0C,IN-SHA-9115,IND,Shajapur,23.448785614128205,76.3616875713643,Industrial,479.54,0.78,5.34,100,3985.82,75.83
D40657E8,IN-SHA-588B,IND,Shajapur,23.189217202220007,76.6180519523191,Industrial,595.72,14.56,5.94,213,3687.72,74.18
42721B25,IN-SHA-4A30,IND,Shajapur,23.296950012566665,76.67215159445934,Residential,1115.37,3.47,0.35,596,18814.01,79.27
D3A7B36F,IN-SHA-0577,IND,Shajapur,23.32265072314184,76.75097264825907,Residential,453.46,0.14,2.68,871,7145.27,69.01
A85C0F58,IN-SHA-B381,IND,Shajapur,23.5167931961075,76.59914666001879,Commercial,0.0,1.43,3.14,2634,7094.25,93.66
E7BCD3D6,IN-SHA-2361,IND,Shajapur,23.40029790030401,76.96548226625104,Agricultural,132.19,1.43,8.3,439,2863.98,55.47
E9F44BF4,IN-SHA-8604,IND,Shajapur,23.450236177647625,76.55048488330328,Industrial,263.59,3.28,7.63,3220,4184.17,61.63
FD887D26,IN-SHA-B435,IND,Shajapur,23.260310354363316,76.6881937620644,Commercial,724.44,1.34,0.89,100,13254.28,74.06
A06C4847,IN-SHA-84F2,IND,Shajapur,23.528909294259737,76.65652511067897,Residential,696.76,9.28,4.0,385,5152.38,80.86
53D7C80C,IN-SHA-7F26,IND,Shajapur,23.20684273574718,76.50029630964569,Commercial,390.33,1.38,1.54,523,10056.0,67.81
B94E0191,IN-SHA-BA70,IND,Shajapur,23.54231165324524,76.27792027948661,Agricultural,0.0,2.12,2.65,713,7127.7,81.65
EA2C798E,IN-SHA-A8CE,IND,Shajapur,23.15942050162956,76.82431948565218,Residential,156.29,2.16,2.67,1740,7506.83,90.53
E3335BB3,IN-SHA-015D,IND,Shajapur,23.429456093581283,76.59598772348839,Agricultural,285.42,0.28,3.8,614,5454.93,76.81
227A000E,IN-SHA-E0AF,IND,Shajapur,23.66043758693928,76.37143610319174,Industrial,312.7,5.6,0.8,6282,16407.66,85.91
0DC8F813,IN-SHI-EE9B,IND,Shivpuri,25.556236665709573,77.86468085655525,Agricultural,454.86,3.32,8.19,836,3056.02,39.45
00EB1BD2,IN-SHI-78B2,IND,Shivpuri,25.138229355669274,77.98620231838748,Industrial,120.44,8.14,3.69,2015,6139.63,84.51
43A9058D,IN-SHI-EEF3,IND,Shivpuri,25.487615165372535,77.94664129788242,Residential,1444.89,5.53,0.99,592,12804.76,61.65
AA34756A,IN-SHI-7494,IND,Shivpuri,25.732900602242474,77.40043936516861,Commercial,0.0,4.97,6.86,190,3258.86,56.17
14D3947B,IN-SHI-3DB4,IND,Shivpuri,25.35877362439619,77.49063634417872,Industrial,794.34,1.93,5.5,4499,5644.8,67.5
F3ED8D1C,IN-SHI-2774,IND,Shivpuri,25.486358898925726,77.58174224842871,Agricultural,547.07,4.47,4.57,2187,5364.74,67.24
E1D50846,IN-SHI-C925,IND,Shivpuri,24.98537304182448,77.57321640139581,Residential,763.62,7.72,2.32,4208,9212.49,70.68
FE0DE833,IN-SHI-EEA7,IND,Shivpuri,25.545274320363394,78.04905665967638,Agricultural,758.96,1.54,2.29,3861,9145.86,81.39
99BD38B6,IN-SHI-9E2C,IND,Shivpuri,25.298607896549147,77.37649157722696,Residential,372.85,3.83,3.89,1491,5713.98,86.42
ADC22307,IN-SHI-FB0C,IND,Shivpuri,25.29558168471199,77.98720597984811,Agricultural,634.75,4.08,0.73,903,14806.33,71.98
85DB9351,IN-DAT-4C36,IND,Datia,25.800454928891618,78.85973710969148,Residential,274.8,2.57,5.92,100,3650.19,66.81
44520A41,IN-DAT-94AC,IND,Datia,25.782402173020003,78.6155655325693,Residential,1044.21,0.41,5.26,642,4248.5,79.17
11DEBFA9,IN-DAT-FA34,IND,Datia,25.644529839933554,78.52756829029171,Agricultural,577.03,1.14,8.53,1385,3176.63,30.05
4E66BE83,IN-DAT-D161,IND,Datia,25.705438621671533,78.66762648701871,Residential,453.6,0.3,0.72,1295,15020.68,88.95
A3363BED,IN-DAT-C9DE,IND,Datia,25.693302536873933,78.51044724449213,Industrial,720.92,3.19,1.77,1618,9682.95,70.83
77CFFB4C,IN-DAT-F715,IND,Datia,25.63283704485046,78.58895938505194,Commercial,713.48,2.01,3.01,122,6283.74,81.96
D6AB0CD8,IN-DAT-2C85,IND,Datia,25.597182449136437,78.69759256431485,Residential,453.61,9.07,1.42,651,10598.47,85.29
CCCACFE5,IN-DAT-E9A6,IND,Datia,25.883912801537438,78.62536510061986,Commercial,492.46,1.12,3.6,245,5529.85,84.35
AE497F67,IN-DAT-5393,IND,Datia,25.975860091410894,78.62591302478113,Commercial,152.68,0.75,4.25,2040,5581.47,64.78
B5E6E6A9,IN-DAT-9212,IND,Datia,25.631789855806034,78.51705909505684,Commercial,439.5,11.56,3.02,1911,6988.68,67.62
03064993,IN-DAT-89FC,IND,Datia,25.650788748873836,78.78281304765004,Commercial,0.0,3.67,1.89,537,8870.41,78.08
DD58D4DB,IN-BUR-241D,IND,Burhanpur,21.46196612414222,76.17517422043885,Industrial,548.73,6.51,5.37,398,4087.0,74.63
23A01C83,IN-BUR-A43A,IND,Burhanpur,21.300964261906348,76.16699641658425,Residential,609.73,5.82,0.88,2197,14188.11,82.37
BD0E6C3D,IN-BUR-0B25,IND,Burhanpur,21.37381793626025,76.45221016363172,Industrial,741.64,0.4,1.16,790,11886.36,74.05
456C07F0,IN-BUR-B2BA,IND,Burhanpur,21.2621055961963,76.52794430405783,Industrial,378.77,3.26,8.3,717,2976.25,34.73
E5FC1B8D,IN-BUR-E15C,IND,Burhanpur,21.241764178956686,76.32927892939918,Commercial,814.19,0.19,2.42,275,7421.19,68.84
8AB1E16A,IN-BUR-FB9E,IND,Burhanpur,21.532313480901717,76.23072635215534,Residential,407.29,0.56,2.62,2149,7756.97,78.14
FB4AE291,IN-BUR-01BE,IND,Burhanpur,21.355907843199034,76.48474011034499,Agricultural,862.32,2.42,4.16,3860,6393.58,65.85
3BF93A5A,IN-BUR-9A6A,IND,Burhanpur,21.28630959751715,76.54578637248879,Agricultural,959.71,2.1,1.76,5079,11081.56,66.53
DD825EB3,IN-BUR-CFD6,IND,Burhanpur,21.27396801911007,76.59030549121485,Agricultural,312.66,5.9,4.93,326,4345.82,73.09
391E997E,IN-BUR-28FE,IND,Burhanpur,21.339714445460533,76.18450537831059,Residential,750.28,2.61,1.08,816,12323.57,79.08
92CC09B5,IN-BUR-CB54,IND,Burhanpur,21.403719851691566,76.3138934906249,Industrial,356.89,0.59,2.78,4407,8378.15,90.69
7BA3A248,IN-BUR-44B5,IND,Burhanpur,21.19115411341576,76.2577598994143,Agricultural,866.17,10.07,4.92,870,4568.85,64.15
905F774D,IN-BUR-33C2,IND,Burhanpur,21.359350515634016,76.34686863326898,Industrial,255.64,1.76,4.09,471,5098.47,78.16
225DCE7F,IN-BUR-0F54,IND,Burhanpur,21.27357155651116,76.2197290950148,Residential,252.76,4.68,1.7,262,9365.19,69.05
D551D240,IN-BUR-36B6,IND,Burhanpur,21.207398046121632,76.52719065617833,Commercial,0.0,3.25,3.04,3374,7531.45,94.86
430E20B4,IN-BUR-F12F,IND,Burhanpur,21.505764270821835,76.49484251171577,Agricultural,911.34,2.71,6.2,594,3710.97,58.32
6D14BF92,IN-BUR-9C72,IND,Burhanpur,21.496288169611045,76.28929269463494,Agricultural,510.3,6.84,4.99,602,4412.02,80.14
4277143A,IN-ANU-59D3,IND,Anuppur,23.270947735132523,82.1472273829307,Commercial,222.72,3.11,0.81,1363,14319.65,77.6
438AF1F0,IN-ANU-FD08,IND,Anuppur,22.772103601565146,81.50712335536016,Commercial,530.77,7.26,3.98,100,5058.6,71.41
34859A6E,IN-ANU-96A3,IND,Anuppur,23.25543658935211,81.15800164865257,Industrial,1184.57,2.46,5.36,333,4061.37,71.5
32EA90ED,IN-ANU-AB33,IND,Anuppur,22.855659368470185,81.72138242615179,Commercial,321.51,1.85,6.06,861,3883.98,67.04
1FFABCFD,IN-ANU-AA63,IND,Anuppur,22.968402343662426,81.49797966277681,Residential,0.0,0.69,4.92,872,4572.57,64.91
54E7574E,IN-ANU-9D56,IND,Anuppur,22.93929403875745,81.47312036902468,Residential,478.64,7.63,3.18,10080,10010.62,68.07
5DA9B509,IN-ANU-D44B,IND,Anuppur,23.12875529880704,81.78761904137127,Agricultural,376.06,6.65,1.45,105,10260.15,67.8
877C9C89,IN-ANU-70FB,IND,Anuppur,22.954565930935182,81.64643315975582,Commercial,933.08,4.22,14.09,161,1721.98,45.28
8B8256AB,IN-ANU-CAF2,IND,Anuppur,23.28304641043195,82.18596998146238,Commercial,171.24,0.1,1.61,2288,10503.34,69.05
560EC306,IN-ANU-7292,IND,Anuppur,22.9563744406404,81.5081814575184,Residential,882.56,0.05,4.01,198,5073.28,69.11
14A5033B,IN-ANU-B066,IND,Anuppur,23.27809995543801,81.14894628934638,Residential,904.36,4.55,0.98,218,12717.18,82.06
30CED983,IN-ANU-745C,IND,Anuppur,23.11708495740788,82.08277854230057,Agricultural,961.86,2.14,1.12,1403,12359.14,88.23
85402FFC,IN-SHA-D279,IND,Shahdol,23.88660042388829,81.49785848466479,Agricultural,597.43,2.4,3.68,219,5431.1,79.77
ED753EF6,IN-SHA-E780,IND,Shahdol,23.329372040888316,81.62189743818571,Agricultural,736.24,7.07,3.79,1202,5703.65,89.79
81E3245D,IN-SHA-9EFD,IND,Shahdol,23.164269755819213,81.29586722772295,Agricultural,513.69,0.85,6.05,108,3590.0,47.43
E2E201C8,IN-SHA-FC54,IND,Shahdol,24.095178026263937,81.53395279014657,Agricultural,295.94,2.12,1.36,991,11000.26,72.93
C2420635,IN-SHA-1BE8,IND,Shahdol,23.379191484543522,81.6656370860742,Commercial,323.03,1.66,1.85,273,8877.22,86.78
4921F4B7,IN-SHA-0920,IND,Shahdol,23.549657374031035,81.56712188893225,Agricultural,276.2,10.0,1.32,509,10959.3,94.84
12B6DAB6,IN-SHA-9FBC,IND,Shahdol,23.28866447969404,81.85841547227093,Commercial,1006.0,3.45,0.68,1558,15469.39,70.59
95E7044D,IN-SHA-C9CC,IND,Shahdol,23.170846820561273,81.46560770122564,Commercial,825.06,1.3,5.52,1287,4349.66,77.21
57863FAE,IN-SHA-DDD0,IND,Shahdol,23.227620167333626,81.3843905567503,Industrial,691.07,2.38,4.31,370,4854.69,64.92
10B2743F,IN-SHA-25B7,IND,Shahdol,23.47779798217463,81.3531350743937,Residential,395.65,8.33,5.27,1706,4667.61,61.75
D70C159B,IN-SHA-7759,IND,Shahdol,23.72786321851008,81.50412153553152,Agricultural,265.46,0.61,2.35,443,7630.45,90.54
361108D9,IN-SHA-EC50,IND,Shahdol,23.966049286407255,81.21197284677655,Residential,688.93,1.65,1.21,517,11509.74,72.72
5187D6EB,IN-SHA-ADA4,IND,Shahdol,24.176953505495618,81.29939251294252,Commercial,132.68,4.46,4.56,4480,6287.55,82.05
9BDAAEF8,IN-SHA-8F99,IND,Shahdol,23.40233168474211,81.80080990810212,Residential,363.82,4.58,4.43,881,4959.36,88.36
7ED8B724,IN-SHA-EE7A,IND,Shahdol,23.36881331373987,81.95928909880898,Agricultural,360.66,4.24,2.17,845,8221.29,83.38
27EB1AEF,IN-VID-43BA,IND,Vidisha,23.963102816229473,77.70062580255757,Commercial,790.55,0.51,0.89,2391,14168.36,80.88
39A0425F,IN-VID-9E3B,IND,Vidisha,23.588528213873325,77.72315401316747,Residential,813.64,1.01,6.44,1011,3762.98,68.58
9E13A5EC,IN-VID-F658,IND,Vidisha,24.219034533290493,77.96800119305743,Residential,631.15,1.61,3.23,268,6018.07,88.96
5873E848,IN-VID-DC06,IND,Vidisha,24.187159113878163,77.64935971797424,Industrial,451.69,3.46,1.9,2243,9522.6,75.53
6F00B4AE,IN-VID-7C5B,IND,Vidisha,23.74459710375444,77.70991154475212,Commercial,945.7,4.67,3.99,1897,5768.24,76.31
41CA8C5E,IN-VID-DA74,IND,Vidisha,24.04011559627874,77.29096299672041,Residential,52.37,6.48,1.85,556,8998.63,87.38
31DF59F6,IN-VID-7DE4,IND,Vidisha,24.008223584647396,78.1014641266234,Commercial,387.38,1.28,7.47,992,3348.58,57.87
B8FE9D12,IN-VID-C3B7,IND,Vidisha,23.744778381307032,77.8573876734336,Commercial,913.26,0.22,12.91,214,1883.35,41.81
2CEF209C,IN-VID-9A55,IND,Vidisha,23.75510492148991,78.01452436257502,Agricultural,392.29,1.4,2.91,235,6489.47,91.81
65628010,IN-VID-A2E3,IND,Vidisha,24.18333903926878,77.97383280421082,Agricultural,0.0,5.1,9.75,1953,3107.55,50.78
021DEC67,IN-VID-5412,IND,Vidisha,23.749173310958685,77.99765227525758,Commercial,463.87,0.22,2.73,2891,7859.92,72.08
F925D7CB,IN-VID-CA7A,IND,Vidisha,23.89341914544001,78.28748677185683,Commercial,760.74,7.2,12.49,5988,4249.01,47.86
9B6D0176,IN-UNA-B471,IND,Una,31.717858031299997,76.11624680678557,Agricultural,639.31,6.12,7.4,821,3305.46,54.19
8A87C27D,IN-UNA-9F1A,IND,Una,31.495892703320525,76.41255842853595,Industrial,1146.9,1.9,1.54,439,10012.89,75.36
417C491D,IN-UNA-522C,IND,Una,31.46444811674236,76.3159158375549,Commercial,300.21,5.39,2.08,3477,9496.58,72.04
B4570CEC,IN-UNA-806E,IND,Una,31.547750560943168,76.40559854567412,Industrial,736.32,10.69,3.61,310,5550.23,73.54
B2929300,IN-UNA-43DE,IND,Una,31.54041934576442,76.35227740587858,Industrial,0.0,2.05,1.11,2437,12847.95,89.63
552E44F0,IN-UNA-A6F4,IND,Una,31.764431739371183,76.10249590550393,Agricultural,530.94,2.26,0.7,228,14776.46,92.01
2B0C5C83,IN-UNA-5E18,IND,Una,31.429158552359926,76.22277638281055,Industrial,131.25,10.19,3.24,2223,6789.56,79.85
1B58786D,IN-UNA-C0B6,IND,Una,31.626979369257043,76.25656346427037,Residential,0.0,3.98,4.72,2986,5565.67,75.69
AD8E11CA,IN-UNA-2F5E,IND,Una,31.748814222874223,76.05133453049707,Industrial,500.82,2.51,2.79,1154,7065.0,67.5
413E0F5E,IN-UNA-518A,IND,Una,31.480441123027827,76.28543086033915,Residential,554.65,4.46,1.33,172,10820.11,74.25
3B937E56,IN-UNA-BC6C,IND,Una,31.795487290468063,76.06526864340965,Commercial,839.53,0.34,1.87,201,8797.57,84.81
7815213A,IN-SOL-3F8E,IND,Solan,31.047865276025227,76.73093637531824,Residential,995.22,4.88,3.27,495,6051.17,83.44
0E46EAA1,IN-SOL-F561,IND,Solan,30.91531461321114,76.96091824430691,Industrial,909.1,2.38,0.17,189,21433.8,77.25
A7812DC1,IN-SOL-D1DF,IND,Solan,31.347278141777885,76.91082792915502,Industrial,494.56,1.47,0.74,1133,14833.09,81.71
46600EA1,IN-SOL-6E36,IND,Solan,31.0948540457755,76.80795694450799,Agricultural,162.65,5.51,2.61,493,7116.21,75.94
5F164363,IN-SOL-3449,IND,Solan,31.257359759620673,76.95002637594166,Commercial,732.4,7.43,0.49,195,16829.89,76.7
06A54A2C,IN-SOL-69BE,IND,Solan,30.977350491965087,77.10790149743913,Commercial,492.1,0.64,8.15,1775,3442.06,44.16
1C8E1720,IN-SOL-5C0C,IND,Solan,30.82114832386861,77.00007333608049,Commercial,577.67,5.33,3.11,1279,6588.42,81.77
9DF31576,IN-SOL-2244,IND,Solan,30.98932639538492,76.817797150774,Agricultural,376.06,0.71,1.99,1803,9089.82,82.05
5A59D9C4,IN-SIR-5FF9,IND,Sirmaur,30.473751112790133,77.66206700928716,Residential,537.49,6.05,4.85,1530,4883.14,76.26
58F7FF58,IN-SIR-814A,IND,Sirmaur,30.58562344081381,77.55363714513284,Residential,92.61,0.89,1.6,940,9976.26,98.09
BD6279F4,IN-SIR-2C20,IND,Sirmaur,30.803879889370275,77.29492114723836,Industrial,746.8,1.68,0.99,811,12874.28,85.97
92599AAE,IN-SIR-962B,IND,Sirmaur,30.900716436665206,77.39709626853328,Commercial,610.63,0.85,1.42,174,10383.74,90.9
514B2100,IN-SIR-DF3A,IND,Sirmaur,30.587954761088113,77.22302144724246,Agricultural,37.61,3.1,6.07,115,3580.3,60.07
2B199FF5,IN-SIR-2882,IND,Sirmaur,30.513371386010117,77.45405021417346,Residential,316.73,1.93,4.47,175,4637.37,64.59
A44C2CB2,IN-SIR-1E62,IND,Sirmaur,30.59449453392419,77.64712060863222,Commercial,534.29,0.01,3.43,200,5718.93,87.67
243DCA2D,IN-SIR-514E,IND,Sirmaur,30.47536338433879,77.51217918507713,Industrial,919.2,1.62,7.09,100,3129.25,48.59
3237116C,IN-SIR-EDBA,IND,Sirmaur,30.606183339966496,77.69240638832446,Commercial,248.41,2.7,6.02,300,3680.75,66.14
EA01B3A5,IN-SIR-DD40,IND,Sirmaur,30.5606090254209,77.31831427572585,Industrial,844.16,3.87,6.57,134,3356.32,48.15
5AA4B775,IN-SIR-1EC3,IND,Sirmaur,30.747270422708148,77.27197068932269,Agricultural,167.94,6.67,2.77,364,6778.63,81.12
EF12344C,IN-SIR-B9AC,IND,Sirmaur,30.692695949389304,77.42451344925013,Residential,40.44,7.37,1.03,644,12549.67,75.83
8D88F12E,IN-SIR-8678,IND,Sirmaur,30.509537462076363,77.38824792759587,Commercial,677.52,2.85,2.54,337,7192.36,83.35
166B02D6,IN-SIR-BDAA,IND,Sirmaur,30.66803784799946,77.63159271324677,Residential,776.11,7.3,1.22,701,11532.29,89.21
850366B4,IN-SIR-DE85,IND,Sirmaur,30.545132300213517,77.79631608888262,Residential,659.24,5.37,8.07,755,3057.82,44.56
40BAC97F,IN-SIR-39E8,IND,Sirmaur,30.609194735907646,77.68988658513383,Residential,448.04,3.76,3.26,140,5928.98,80.38
A07C7EC5,IN-KIN-3B22,IND,Kinnaur,31.694607079218564,78.28635810993781,Industrial,482.32,0.24,1.71,867,9577.96,77.65
72A4B938,IN-KIN-281F,IND,Kinnaur,31.49539129883285,78.56668466208941,Commercial,237.76,0.78,1.41,2167,11254.19,74.67
2C2E88E9,IN-KIN-2F3C,IND,Kinnaur,31.281286975993098,78.52634573738518,Agricultural,697.07,3.61,2.46,710,7508.39,79.38
3F23AFD9,IN-KIN-F3F4,IND,Kinnaur,31.743600890687567,77.9927476732884,Commercial,568.67,3.74,3.66,100,5401.14,76.22
231CF4F1,IN-KIN-A092,IND,Kinnaur,31.670811232570788,77.93934441242835,Agricultural,0.0,2.21,3.24,100,5941.69,71.42
0A95A047,IN-KIN-6594,IND,Kinnaur,31.811181505731003,78.5837879175254,Commercial,1220.12,3.68,0.35,479,18691.71,70.37
6210F2E7,IN-KIN-D70E,IND,Kinnaur,31.517430234978203,77.85035302472093,Agricultural,576.24,3.49,2.58,1023,7400.15,84.57
FA2C65C2,IN-KIN-1D6F,IND,Kinnaur,31.770091005334077,78.51310262472022,Industrial,324.26,8.13,1.31,10079,14844.44,89.84
E7A8ACE0,IN-KIN-D849,IND,Kinnaur,31.950590718628856,78.56009744949709,Industrial,1032.62,1.54,2.16,1439,8489.88,71.49
7139EA89,IN-KIN-5460,IND,Kinnaur,31.752721016132455,78.11541113770785,Commercial,614.26,0.27,1.51,294,10089.8,76.23
2A769FA6,IN-KIN-DA56,IND,Kinnaur,31.621843536660638,78.52260160589056,Agricultural,366.26,2.52,2.22,1186,8246.99,69.0
EE5DA3A3,IN-KIN-C8E5,IND,Kinnaur,31.727786556618742,78.61045362369175,Residential,555.75,0.94,4.0,672,5265.47,85.7
3636BCEB,IN-KIN-5736,IND,Kinnaur,31.34072756005453,78.73075150505508,Agricultural,992.68,5.02,5.89,309,3749.64,48.32
A4BD9AEF,IN-KIN-ED73,IND,Kinnaur,31.99148294696784,78.60443874585121,Residential,482.44,6.18,11.58,1141,2444.32,44.74
D4186147,IN-KIN-B9C1,IND,Kinnaur,31.868907531835575,78.23657726597209,Industrial,859.15,3.86,0.93,2000,13761.72,69.61
A8C4923A,IN-KIN-CD89,IND,Kinnaur,31.222705157721144,78.48283604234373,Industrial,449.45,5.25,1.7,472,9465.45,94.41
FACF4497,IN-KUL-3544,IND,Kullu,31.52699793145073,77.53440229600633,Industrial,760.21,4.99,4.75,735,4638.59,61.67
8899E083,IN-KUL-26A9,IND,Kullu,31.800196932511604,77.57453000867937,Industrial,502.41,2.55,1.88,352,8816.7,83.44
BCED56E5,IN-KUL-C55C,IND,Kullu,32.129888399228825,77.48967234143605,Residential,298.7,5.48,4.34,197,4759.92,89.74
9EC8E572,IN-KUL-9FBD,IND,Kullu,32.00204479651589,77.61117745521294,Commercial,518.35,2.27,4.58,323,4607.32,66.54
3EC9ADAD,IN-KUL-3EA0,IND,Kullu,32.23935372476339,77.07971295350278,Residential,287.71,2.73,7.94,483,2991.26,58.2
6E2F20E3,IN-KUL-BF9C,IND,Kullu,31.61936006437311,77.3935972513651,Industrial,759.53,3.34,3.13,2501,7048.22,69.69
C7B55F57,IN-KUL-78EC,IND,Kullu,32.116528880923454,77.64128494486803,Agricultural,607.68,5.2,7.55,5082,4958.56,41.68
3B713029,IN-KUL-785F,IND,Kullu,32.2834881002435,77.07049711260096,Industrial,240.59,5.47,0.97,984,13092.61,86.64
F9632045,IN-KUL-FC06,IND,Kullu,32.19778509715633,77.10778571492041,Industrial,323.95,11.3,2.46,169,7294.37,85.35
1D6E8016,IN-KUL-29A7,IND,Kullu,31.693905752198877,77.36451942111518,Residential,485.49,1.05,2.59,2254,7861.48,79.45
E378B7DA,IN-KUL-9997,IND,Kullu,31.932592408810386,77.55512073726614,Industrial,242.54,2.73,7.01,1235,3615.67,47.5
093D8A16,IN-CHA-F570,IND,Chamba,32.56465674514668,76.21682107770374,Industrial,545.07,0.31,3.06,3400,7512.55,81.86
98058A52,IN-CHA-1155,IND,Chamba,32.622204956382774,76.06845418452507,Industrial,449.91,5.82,0.1,803,23048.48,81.55
3FD6746A,IN-CHA-983B,IND,Chamba,32.94511111190995,76.31569547206209,Residential,925.15,0.19,3.12,273,6181.47,72.36
256511FF,IN-CHA-FB8D,IND,Chamba,32.341904719542,76.63046134106708,Commercial,650.76,6.06,4.38,128,4698.4,87.44
23D846FF,IN-CHA-9508,IND,Chamba,33.10163892233786,76.44455538325141,Industrial,358.13,1.84,2.92,476,6574.27,71.46
E8497202,IN-CHA-B2E8,IND,Chamba,32.58708447880524,75.91349091761118,Commercial,872.72,4.82,6.93,479,3344.66,65.05
C326E0B8,IN-CHA-6862,IND,Chamba,32.38492008463174,76.21082185568572,Agricultural,763.75,0.58,6.16,131,3544.66,66.49
8187D796,IN-CHA-026E,IND,Chamba,32.810984277999665,76.25177955852097,Agricultural,311.23,14.57,6.37,163,3458.93,48.73
0D29EC1E,IN-CHA-72F1,IND,Chamba,32.47876768384703,76.03532155305602,Residential,0.0,7.08,1.25,588,11367.33,72.87
537136E3,IN-CHA-E932,IND,Chamba,32.331915065228245,76.14826515239989,Commercial,936.42,9.4,10.65,1213,2631.26,34.54
B91C1EEA,IN-CHA-30EA,IND,Chamba,32.82268582586257,75.8891746606482,Residential,274.46,7.99,5.13,285,4193.55,68.18
600A3760,IN-CHA-2145,IND,Chamba,32.751894804591224,76.26238405973662,Commercial,503.01,3.44,5.84,472,3846.25,76.16
7DE9D692,IN-SHI-F4BC,IND,Shimla,31.069768257707402,77.15869850848016,Industrial,598.8,4.59,4.48,284,4672.04,60.26
9B3EB12C,IN-SHI-4907,IND,Shimla,31.601365224682414,77.73921121195292,Agricultural,257.09,2.92,4.8,245,4405.3,84.69
B4DB1471,IN-SHI-921B,IND,Shimla,31.287898590592025,78.03773841455545,Residential,727.36,1.37,3.4,450,5861.93,90.13
B76D476D,IN-SHI-16AE,IND,Shimla,31.410501113364457,78.04561065386447,Industrial,677.33,0.78,1.81,1540,9528.03,79.81
CB2C82B6,IN-SHI-93A9,IND,Shimla,30.940128135246866,77.75249502302731,Commercial,882.56,2.55,4.48,377,4714.25,78.21
E8EBC4E6,IN-SHI-C646,IND,Shimla,31.057252422305172,77.15016736718363,Industrial,579.19,6.42,4.88,2896,5412.66,57.79
394C6957,IN-SHI-8F0D,IND,Shimla,30.87448285156884,77.57911546075209,Commercial,218.78,4.14,5.73,2834,4847.45,79.95
ABB575F8,IN-SHI-6CE9,IND,Shimla,31.269183039397287,77.74544204647583,Commercial,471.92,0.05,4.08,348,5063.57,69.88
1FAE5584,IN-SHI-FF1E,IND,Shimla,31.301680943477567,77.77140018340661,Industrial,186.14,5.94,1.75,1737,9800.13,81.65
E7419907,IN-BIL-CE8C,IND,Bilaspur,31.531604887725113,76.73333255935036,Agricultural,346.97,3.01,1.62,249,9637.73,81.8
5F0AD03D,IN-BIL-F015,IND,Bilaspur,31.459008817435677,76.62281179842626,Residential,96.04,1.48,3.48,2808,6704.01,86.09
5ED69549,IN-BIL-B5B5,IND,Bilaspur,31.46040866309885,76.62190725327028,Residential,526.21,3.65,7.04,871,3457.04,65.02
72DD67F1,IN-BIL-B6CF,IND,Bilaspur,31.427645997808227,76.48883680272861,Residential,844.25,9.58,1.04,1992,13025.89,64.78
87166EBE,IN-BIL-1581,IND,Bilaspur,31.316824673638322,76.83298355109062,Industrial,261.06,7.37,7.4,730,3269.28,47.52
FE8825D7,IN-BIL-3E46,IND,Bilaspur,31.321684108055617,76.81999096053663,Commercial,324.58,8.84,3.45,7798,8740.14,92.61
B791ACDC,IN-BIL-DE08,IND,Bilaspur,31.427627046118175,76.72025780661383,Industrial,1204.73,4.75,0.27,241,19836.16,86.77
9F654D57,IN-BIL-AFDB,IND,Bilaspur,31.42130884948894,76.49097079398042,Industrial,925.95,10.15,3.6,1974,6226.7,86.37
4A7BA796,IN-BIL-1123,IND,Bilaspur,31.275550216549426,76.54007576788717,Agricultural,767.11,4.05,4.72,103,4412.94,62.31
E74746E6,IN-BIL-84F3,IND,Bilaspur,31.482645726150107,76.65290693540527,Commercial,815.58,1.04,1.88,529,8899.2,71.54
9708661F,IN-BIL-962E,IND,Bilaspur,31.36569777000085,76.76568875541606,Commercial,373.53,5.23,4.94,759,4513.3,59.9
34393201,IN-BIL-BB88,IND,Bilaspur,31.348095174748185,76.4971254043587,Residential,268.65,6.51,1.75,252,9199.94,92.58
D59F7971,IN-BIL-B274,IND,Bilaspur,31.38917543700969,76.57044435794715,Industrial,565.43,3.55,3.82,527,5398.77,65.11
FF0B72EA,IN-BIL-C677,IND,Bilaspur,31.326823475928173,76.50367129404934,Residential,618.17,5.16,3.89,645,5374.07,71.38
E8592403,IN-BIL-8699,IND,Bilaspur,31.45660868332807,76.77510279112168,Commercial,373.25,5.14,1.62,941,9907.23,93.39
257487AB,IN-KAN-A838,IND,Kangra,32.13318116049731,76.0073203590283,Industrial,825.32,1.93,3.21,1395,6494.45,69.13
7D3DD8C4,IN-KAN-FC62,IND,Kangra,31.930115623140917,75.96701850857173,Commercial,614.7,5.54,0.52,1377,17051.21,80.07
8593CE66,IN-KAN-A12A,IND,Kangra,32.158890506913906,76.85847976158503,Industrial,625.6,4.2,12.58,382,1993.48,41.3
F0727E79,IN-KAN-6445,IND,Kangra,32.25548498375986,75.81114972036187,Industrial,471.46,7.06,4.24,797,5091.59,69.72
4C7D0136,IN-KAN-0F83,IND,Kangra,32.02554802284173,75.90300731045649,Residential,437.46,2.92,6.5,1549,3952.25,51.34
9B8924D4,IN-KAN-5C6F,IND,Kangra,31.89934223118869,76.55598969867346,Commercial,530.97,9.85,0.48,509,17062.38,94.82
747D1EB4,IN-KAN-BCD3,IND,Kangra,31.95202931474416,76.18727135151188,Agricultural,431.15,2.49,6.88,329,3304.92,48.41
300544CF,IN-KAN-2E7A,IND,Kangra,32.18198666319179,76.24323125765856,Agricultural,0.0,9.34,0.87,143,13402.6,80.69
53ED9D2D,IN-KAN-35F9,IND,Kangra,31.933537998425173,76.34936716854219,Industrial,718.06,0.44,3.83,1019,5581.9,91.51
9E7E8C37,IN-KAN-5A10,IND,Kangra,32.38871338640018,76.88786045545088,Commercial,188.19,4.34,1.65,123,9495.3,69.33
592EE0A6,IN-KAN-BCA5,IND,Kangra,31.880910759823017,76.0224976177174,Commercial,882.34,4.08,1.02,1989,13175.66,64.96
D1CF8384,IN-KAN-5CDC,IND,Kangra,32.1892004182034,76.23745239319254,Agricultural,1189.99,7.21,13.95,2746,2770.7,38.77
A88619B9,IN-KAN-565A,IND,Kangra,32.352422749400986,76.21696932032812,Agricultural,496.49,4.16,5.33,1782,4661.46,59.02
38402214,IN-KAN-D804,IND,Kangra,32.15736047613196,76.98080328884384,Commercial,158.53,3.59,2.54,823,7391.47,78.96
E47FB7E8,IN-KAN-79E2,IND,Kangra,32.036741867321,76.15288407737404,Industrial,20.59,3.24,0.99,3769,14067.98,77.61
FBDE4212,IN-KAN-C46D,IND,Kangra,32.18628725691024,76.81947857929956,Industrial,747.84,1.61,6.34,1031,3817.99,61.25
ECCC7053,IN-KAN-FC14,IND,Kangra,32.19740633190634,75.68735187837305,Residential,210.39,3.27,2.47,797,7531.28,96.39
C23927A7,IN-LAH-A8CE,IND,Lahul & Spiti,32.07846654979562,78.52089767250489,Residential,393.35,10.27,2.59,313,7089.22,90.16
DC37E481,IN-LAH-6257,IND,Lahul & Spiti,32.531570996558074,77.04206154187477,Residential,217.35,0.97,10.44,307,2308.79,36.28
6801F2C7,IN-LAH-9538,IND,Lahul & Spiti,32.92048588774863,77.1434461816662,Industrial,434.18,1.17,1.5,434,10176.74,67.97
226FE9FE,IN-LAH-4009,IND,Lahul & Spiti,32.403377969356626,78.34122690473005,Agricultural,680.03,2.71,0.62,830,15790.03,85.43
7043E206,IN-LAH-18EC,IND,Lahul & Spiti,32.87404349100968,77.24270588250776,Agricultural,527.18,3.76,4.56,340,4634.43,65.15
8BB4BF60,IN-LAH-D3DB,IND,Lahul & Spiti,33.085992603128894,76.89502946831936,Residential,364.87,2.03,6.97,698,3415.07,52.8
DE5FFCC6,IN-LAH-824D,IND,Lahul & Spiti,32.61541904313759,77.2643654821061,Commercial,238.16,4.6,0.81,130,13886.52,96.62
AF92ECE6,IN-LAH-D78E,IND,Lahul & Spiti,32.03061481792018,78.28602850848796,Residential,291.2,1.85,2.18,211,7942.06,76.48
BCF7DCE8,IN-LAH-27E4,IND,Lahul & Spiti,32.64547599808557,78.1780154303026,Commercial,293.06,6.84,2.8,1137,7035.46,68.02
50599D79,IN-LAH-B93E,IND,Lahul & Spiti,32.8817692492836,77.20339718891428,Industrial,732.57,1.62,4.6,314,4593.58,83.5
7AA8B791,IN-LAH-F898,IND,Lahul & Spiti,32.62279703318102,77.88630433778084,Industrial,656.36,10.42,4.48,359,4707.74,60.48
9AE00E0F,IN-LAH-6EB9,IND,Lahul & Spiti,32.645142453954456,76.73005008608574,Industrial,1001.75,6.9,5.18,600,4286.19,62.46
768F0FFB,IN-MAN-4AFD,IND,Mandi,31.69840354650325,77.08623368724857,Industrial,960.44,10.3,2.37,463,7610.54,93.2
D1B62B49,IN-MAN-421A,IND,Mandi,31.590950145622582,76.93452370512702,Commercial,89.24,3.47,5.6,898,4145.7,67.0
E046B7FF,IN-MAN-4DD6,IND,Mandi,31.61364255207496,76.79712999992152,Industrial,325.78,0.02,7.02,567,3345.48,66.76
8E4F0547,IN-MAN-6538,IND,Mandi,31.63565031651048,76.86503632274899,Industrial,1188.72,6.43,3.03,212,6290.36,81.57
5A266452,IN-MAN-F192,IND,Mandi,31.876492060357137,76.77974797139366,Agricultural,1154.47,1.83,6.25,6070,5877.97,51.28
14DFEE44,IN-MAN-7EBD,IND,Mandi,31.371646453440192,77.35123195314087,Agricultural,1115.29,0.04,5.86,434,3815.72,62.38
FB92B2E9,IN-MAN-A2E8,IND,Mandi,31.58499452032518,76.80350918430644,Industrial,126.03,8.16,5.37,294,4042.16,55.81
3A235586,IN-MAN-64E6,IND,Mandi,31.57560339565727,76.97487164743177,Industrial,1347.91,6.8,5.88,532,3844.42,68.92
3C1F4394,IN-MAN-4FF0,IND,Mandi,31.434004450683805,77.05065236812058,Commercial,0.0,4.73,3.04,583,6419.12,82.48
4F237A27,IN-MAN-4A47,IND,Mandi,31.64385790893078,76.98689418419693,Commercial,515.0,3.27,6.57,204,3385.98,58.6
54159DA2,IN-MAN-0004,IND,Mandi,31.806320023660255,76.91405543721176,Commercial,779.16,3.3,1.37,353,10687.12,94.78
0C93049B,IN-HAM-3B1F,IND,Hamirpur,31.64401554580194,76.54660780332699,Commercial,531.88,3.87,3.3,283,5923.53,69.86
3C5B007C,IN-HAM-69BF,IND,Hamirpur,31.804693151430705,76.51436419601211,Industrial,392.61,1.74,1.9,433,8787.82,83.48
5422B51D,IN-HAM-5323,IND,Hamirpur,31.60417520488627,76.44786190912099,Industrial,552.36,2.76,5.25,283,4112.26,75.74
6E67C5BC,IN-HAM-D894,IND,Hamirpur,31.623768767293807,76.6725179055075,Commercial,438.59,1.93,0.33,271,18942.48,71.61
FAFE266B,IN-HAM-30AD,IND,Hamirpur,31.780009118430645,76.55092522019834,Commercial,901.74,0.11,1.71,455,9390.86,78.75
B9464B2C,IN-HAM-3CED,IND,Hamirpur,31.654356580135286,76.72137143236668,Agricultural,937.17,2.6,1.37,916,10912.82,90.8
05F62114,IN-HAM-EA46,IND,Hamirpur,31.52030754025773,76.43772656427997,Agricultural,260.01,4.39,0.96,292,12904.5,91.9
E90E308B,IN-HAM-90C1,IND,Hamirpur,31.60884289181465,76.67116844364745,Residential,98.38,4.43,2.6,260,7049.39,91.66
21360399,IN-HAM-13E2,IND,Hamirpur,31.66218357272322,76.37444413755473,Commercial,126.48,2.35,1.78,1765,9687.61,92.92
5BE1F3A3,IN-HAM-EEDB,IND,Hamirpur,31.523017725754503,76.48041142582228,Industrial,928.05,0.63,1.57,493,9915.53,76.92
3434E0A7,IN-HAM-27C3,IND,Hamirpur,31.719767517707645,76.61065979765486,Industrial,636.38,1.26,1.4,100,10470.72,83.46
EADE0564,IN-DAT-C34B,IND,DATA NOT AVAILABLE,33.88205831558516,73.87295983677035,Agricultural,725.75,2.94,1.18,2204,12344.95,78.85
C99B1DB1,IN-DAT-3FA3,IND,DATA NOT AVAILABLE,35.579738729226726,75.11730813908744,Residential,1084.45,0.83,4.42,700,4892.61,60.84
8AEB3AF8,IN-DAT-BD4D,IND,DATA NOT AVAILABLE,35.348177048620926,74.63258531614659,Commercial,479.55,5.0,3.08,1546,6750.4,76.45
ED3B0E38,IN-DAT-CE79,IND,DATA NOT AVAILABLE,35.730288633820564,73.24903566581143,Industrial,428.4,0.86,5.21,2599,5067.35,71.71
D51CF7DD,IN-DAT-AB68,IND,DATA NOT AVAILABLE,35.779377563172176,73.21785454816713,Residential,597.58,5.9,1.68,1588,9952.96,86.78
BD9F2286,IN-DAT-781C,IND,DATA NOT AVAILABLE,35.05561250743799,74.94668170137784,Industrial,391.03,4.15,2.65,131,6900.55,92.15
AC5BAC16,IN-DAT-788E,IND,DATA NOT AVAILABLE,36.2095820550938,76.08151017056868,Commercial,353.4,1.33,5.94,318,3727.24,49.12
C6578A19,IN-DAT-BDE7,IND,DATA NOT AVAILABLE,35.430336575115184,73.88817498330418,Residential,175.89,2.71,1.76,1102,9488.97,97.5
3BEC9854,IN-DAT-28EB,IND,DATA NOT AVAILABLE,36.13926046814298,74.9670209117279,Residential,447.67,3.74,5.83,153,3720.73,59.82
504464DC,IN-DAT-3C38,IND,DATA NOT AVAILABLE,35.5387276952387,74.16534744693169,Residential,520.02,1.87,7.98,130,2836.18,59.66
737C867E,IN-DAT-B1B6,IND,DATA NOT AVAILABLE,35.66398373050313,74.36052363123484,Agricultural,67.21,0.5,2.64,3664,8330.6,91.05
6EA171E4,IN-DAT-12A8,IND,DATA NOT AVAILABLE,35.587913667081615,74.99957470165619,Industrial,971.26,7.62,4.06,523,5146.31,66.88
F19F045A,IN-DAT-85A1,IND,DATA NOT AVAILABLE,35.6541399361995,77.40650191890852,Residential,465.85,2.16,1.59,796,9954.34,74.75
036B6A58,IN-DAT-82EB,IND,DATA NOT AVAILABLE,36.06145752927438,76.15122268201111,Agricultural,440.32,0.31,1.76,137,9112.82,89.3
B83CF345,IN-DAT-0237,IND,DATA NOT AVAILABLE,35.338469258856776,76.22405820442911,Commercial,575.96,3.42,4.06,3355,6278.41,62.12
F9076C29,IN-ANA-C59E,IND,Anantnag,34.2241270416727,75.49595206229993,Commercial,811.15,1.34,3.17,100,6041.82,81.72
BD61C08A,IN-ANA-3544,IND,Anantnag,33.652265743778955,75.43886023321865,Industrial,334.12,5.29,0.68,182,14972.09,84.26
E9CFE4CC,IN-ANA-CEAB,IND,Anantnag,33.96654118154512,75.30339715062934,Agricultural,514.03,1.81,9.21,6564,5073.6,58.0
C9028B5D,IN-ANA-B566,IND,Anantnag,33.510123639816534,75.37473417404136,Residential,504.88,2.65,2.28,3969,9212.15,75.02
26E122E6,IN-ANA-71C5,IND,Anantnag,33.832744225076155,75.38394424901836,Residential,27.22,1.67,2.92,100,6417.75,78.5
A5E2315B,IN-ANA-D91B,IND,Anantnag,33.80904308855715,75.33105654951837,Residential,611.26,4.96,3.93,229,5162.0,80.75
5B81D6AD,IN-ANA-9F43,IND,Anantnag,33.7646972427824,75.15329671929145,Industrial,198.89,1.83,3.98,1681,5690.17,72.56
7B00E3D3,IN-ANA-EA63,IND,Anantnag,33.787757049020904,75.39126598285748,Agricultural,675.99,0.26,1.45,149,10272.15,69.32
796429C8,IN-ANA-6092,IND,Anantnag,33.422007199348094,75.32824412193398,Commercial,1064.44,1.18,0.48,620,17155.68,84.44
B266D765,IN-ANA-9871,IND,Anantnag,33.63816844418844,75.16772911310662,Industrial,194.52,5.43,4.65,307,4549.08,69.29
9DB8CFC2,IN-BAR-9226,IND,Baramula,33.954879447336644,74.43036262462768,Residential,584.52,0.3,6.54,319,3442.25,54.2
7E489D61,IN-BAR-0081,IND,Baramula,34.106690482279575,74.14802228647076,Residential,150.27,9.28,0.3,652,19564.32,90.22
EAE19A0F,IN-BAR-0F07,IND,Baramula,33.94954706422264,74.28520572477943,Agricultural,873.87,7.76,1.8,872,9289.62,78.21
A73E3631,IN-BAR-4513,IND,Baramula,34.12158350596084,74.27311218955192,Agricultural,702.65,2.89,0.72,1161,15018.95,73.58
C42D84CB,IN-BAR-9F47,IND,Baramula,34.09292865687826,74.11056044435853,Residential,162.46,0.38,7.11,5934,5457.45,53.61
5CA178F4,IN-BAR-0E54,IND,Baramula,34.11067558788002,74.07597283895676,Industrial,489.77,1.42,6.67,11637,7913.98,58.56
00F60347,IN-BAR-045B,IND,Baramula,34.1244250869913,74.52585738165055,Residential,838.38,5.18,12.65,1529,2442.79,31.17
5F28539D,IN-BAR-0B29,IND,Baramula,33.9206243283364,74.52828941693431,Residential,471.72,0.91,0.52,156,16532.84,73.27
